{"type":"FeatureCollection","features":[{"type":"Feature","properties":{"stopCode":"M1","stopName":"關閘總站","marker-size":"small","marker-color":"#FFC853"},"geometry":{"type":"Point","coordinates":[113.548907,22.214503]}},{"type":"Feature","properties":{"stopCode":"M225","stopName":"看台街/騎士馬路","marker-size":"small","marker-color":"#FFC853"},"geometry":{"type":"Point","coordinates":[113.549406,22.213254]}},{"type":"Feature","properties":{"stopCode":"M7","stopName":"關閘馬路","marker-size":"small","marker-color":"#FFC853"},"geometry":{"type":"Point","coordinates":[113.548544,22.212353]}},{"type":"Feature","properties":{"stopCode":"M27","stopName":"關閘馬路/三角花園","marker-size":"small","marker-color":"#FFC853"},"geometry":{"type":"Point","coordinates":[113.548611,22.210505]}},{"type":"Feature","properties":{"stopCode":"M29","stopName":"慕拉士馬路","marker-size":"small","marker-color":"#FFC853"},"geometry":{"type":"Point","coordinates":[113.550319,22.208431]}},{"type":"Feature","properties":{"stopCode":"M36","stopName":"慕拉士巷","marker-size":"small","marker-color":"#FFC853"},"geometry":{"type":"Point","coordinates":[113.552825,22.206468]}},{"type":"Feature","properties":{"stopCode":"M48","stopName":"慕拉士/飛通大廈","marker-size":"small","marker-color":"#FFC853"},"geometry":{"type":"Point","coordinates":[113.554412,22.20519]}},{"type":"Feature","properties":{"stopCode":"M52","stopName":"漁翁街/勞工事務局","marker-size":"small","marker-color":"#FFC853"},"geometry":{"type":"Point","coordinates":[113.559992,22.204754]}},{"type":"Feature","properties":{"stopCode":"M239","stopName":"外港碼頭","marker-size":"small","marker-color":"#FFC853"},"geometry":{"type":"Point","coordinates":[113.559575,22.198089]}},{"type":"Feature","properties":{"stopCode":"M254","stopName":"友誼馬路/行車天橋","marker-size":"small","marker-color":"#FFC853"},"geometry":{"type":"Point","coordinates":[113.554846,22.194852]}},{"type":"Feature","properties":{"stopCode":"M241","stopName":"旅遊活動中心","marker-size":"small","marker-color":"#FFC853"},"geometry":{"type":"Point","coordinates":[113.553052,22.194683]}},{"type":"Feature","properties":{"stopCode":"M71","stopName":"廈門街/理工","marker-size":"small","marker-color":"#FFC853"},"geometry":{"type":"Point","coordinates":[113.551708,22.193188]}},{"type":"Feature","properties":{"stopCode":"M155","stopName":"東方拱門","marker-size":"small","marker-color":"#FFC853"},"geometry":{"type":"Point","coordinates":[113.549843,22.193858]}},{"type":"Feature","properties":{"stopCode":"M157","stopName":"治安警察局","marker-size":"small","marker-color":"#FFC853"},"geometry":{"type":"Point","coordinates":[113.546628,22.191892]}},{"type":"Feature","properties":{"stopCode":"M169","stopName":"教育暨青年局","marker-size":"small","marker-color":"#FFC853"},"geometry":{"type":"Point","coordinates":[113.543987,22.191863]}},{"type":"Feature","properties":{"stopCode":"M171","stopName":"中區/殷皇子馬路","marker-size":"small","marker-color":"#FFC853"},"geometry":{"type":"Point","coordinates":[113.541545,22.191589]}},{"type":"Feature","properties":{"stopCode":"M142","stopName":"金碧文娛中心","marker-size":"small","marker-color":"#FFC853"},"geometry":{"type":"Point","coordinates":[113.537389,22.195609]}},{"type":"Feature","properties":{"stopCode":"M136","stopName":"粵通碼頭","marker-size":"small","marker-color":"#FFC853"},"geometry":{"type":"Point","coordinates":[113.536366,22.195758]}},{"type":"Feature","properties":{"stopCode":"M139","stopName":"司打口","marker-size":"small","marker-color":"#FFC853"},"geometry":{"type":"Point","coordinates":[113.535309,22.193582]}},{"type":"Feature","properties":{"stopCode":"M184","stopName":"河邊新街/街市","marker-size":"small","marker-color":"#FFC853"},"geometry":{"type":"Point","coordinates":[113.533952,22.191195]}},{"type":"Feature","properties":{"stopCode":"M188","stopName":"河邊新街/下環","marker-size":"small","marker-color":"#FFC853"},"geometry":{"type":"Point","coordinates":[113.532229,22.188679]}},{"type":"Feature","properties":{"stopCode":"M203","stopName":"媽閣廟站","marker-size":"small","marker-color":"#FFC853"},"geometry":{"type":"Point","coordinates":[113.531091,22.187032]}},{"type":"Feature","properties":{"stopCode":"M3","stopName":"媽閣總站","marker-size":"small","marker-color":"#FFC853"},"geometry":{"type":"Point","coordinates":[113.528953,22.184697]}},{"type":"Feature","properties":{"stopCode":"M3","stopName":"媽閣總站","marker-size":"small","marker-color":"#7F642A"},"geometry":{"type":"Point","coordinates":[113.528953,22.184697]}},{"type":"Feature","properties":{"stopCode":"M204","stopName":"媽閣廟前地","marker-size":"small","marker-color":"#7F642A"},"geometry":{"type":"Point","coordinates":[113.530863,22.187009]}},{"type":"Feature","properties":{"stopCode":"M190","stopName":"河邊新街/媽閣","marker-size":"small","marker-color":"#7F642A"},"geometry":{"type":"Point","coordinates":[113.532442,22.189128]}},{"type":"Feature","properties":{"stopCode":"M140","stopName":"河邊新街/李道巷","marker-size":"small","marker-color":"#7F642A"},"geometry":{"type":"Point","coordinates":[113.534528,22.192265]}},{"type":"Feature","properties":{"stopCode":"M137","stopName":"火船頭街","marker-size":"small","marker-color":"#7F642A"},"geometry":{"type":"Point","coordinates":[113.53589,22.194954]}},{"type":"Feature","properties":{"stopCode":"M135","stopName":"新馬路/營地大街","marker-size":"small","marker-color":"#7F642A"},"geometry":{"type":"Point","coordinates":[113.538563,22.194561]}},{"type":"Feature","properties":{"stopCode":"M170","stopName":"殷皇子馬路","marker-size":"small","marker-color":"#7F642A"},"geometry":{"type":"Point","coordinates":[113.541707,22.191582]}},{"type":"Feature","properties":{"stopCode":"M172","stopName":"亞馬喇前地","marker-size":"small","marker-color":"#7F642A"},"geometry":{"type":"Point","coordinates":[113.543367,22.189429]}},{"type":"Feature","properties":{"stopCode":"M69","stopName":"葡京酒店","marker-size":"small","marker-color":"#7F642A"},"geometry":{"type":"Point","coordinates":[113.544951,22.18927]}},{"type":"Feature","properties":{"stopCode":"M160","stopName":"十月一日前地","marker-size":"small","marker-color":"#7F642A"},"geometry":{"type":"Point","coordinates":[113.546218,22.190947]}},{"type":"Feature","properties":{"stopCode":"M158","stopName":"北京街/假日酒店","marker-size":"small","marker-color":"#7F642A"},"geometry":{"type":"Point","coordinates":[113.547744,22.191745]}},{"type":"Feature","properties":{"stopCode":"M161","stopName":"高美士/何賢公園","marker-size":"small","marker-color":"#7F642A"},"geometry":{"type":"Point","coordinates":[113.550116,22.192648]}},{"type":"Feature","properties":{"stopCode":"M70","stopName":"理工學院","marker-size":"small","marker-color":"#7F642A"},"geometry":{"type":"Point","coordinates":[113.552025,22.193444]}},{"type":"Feature","properties":{"stopCode":"M118","stopName":"高美士/馬六甲街停車場","marker-size":"small","marker-color":"#7F642A"},"geometry":{"type":"Point","coordinates":[113.553821,22.195763]}},{"type":"Feature","properties":{"stopCode":"M53","stopName":"水塘北角/勞工事務局","marker-size":"small","marker-color":"#7F642A"},"geometry":{"type":"Point","coordinates":[113.559912,22.204693]}},{"type":"Feature","properties":{"stopCode":"M49","stopName":"慕拉士/發電廠","marker-size":"small","marker-color":"#7F642A"},"geometry":{"type":"Point","coordinates":[113.554087,22.205325]}},{"type":"Feature","properties":{"stopCode":"M35","stopName":"慕拉士馬路/望廈","marker-size":"small","marker-color":"#7F642A"},"geometry":{"type":"Point","coordinates":[113.552061,22.207005]}},{"type":"Feature","properties":{"stopCode":"M28","stopName":"黑沙環馬路","marker-size":"small","marker-color":"#7F642A"},"geometry":{"type":"Point","coordinates":[113.549751,22.208122]}},{"type":"Feature","properties":{"stopCode":"M11","stopName":"拱形馬路/蓮峰廟","marker-size":"small","marker-color":"#7F642A"},"geometry":{"type":"Point","coordinates":[113.548326,22.210161]}},{"type":"Feature","properties":{"stopCode":"M8","stopName":"巴波沙大馬路","marker-size":"small","marker-color":"#7F642A"},"geometry":{"type":"Point","coordinates":[113.547594,22.212546]}},{"type":"Feature","properties":{"stopCode":"M1","stopName":"關閘總站","marker-size":"small","marker-color":"#7F642A"},"geometry":{"type":"Point","coordinates":[113.548907,22.214503]}},{"type":"Feature","properties":{"routeCode":"10","routeName":"關閘 ⇀  媽閣"},"geometry":{"type":"LineString","coordinates":[[113.548907,22.214503],[113.549996,22.21435],[113.549828,22.213199],[113.549406,22.213254],[113.548738,22.213338],[113.548544,22.212353],[113.548324,22.211218],[113.548383,22.210964],[113.548611,22.210505],[113.548751,22.210279],[113.548816,22.210073],[113.548925,22.210015],[113.549409,22.209157],[113.549458,22.209023],[113.550319,22.208431],[113.552825,22.206468],[113.554412,22.20519],[113.555422,22.204396],[113.557074,22.204307],[113.559992,22.204754],[113.560294,22.204814],[113.56046,22.205152],[113.56002,22.205787],[113.560246,22.20613],[113.5606,22.206006],[113.560707,22.204635],[113.562268,22.199882],[113.56222,22.199614],[113.560771,22.199162],[113.560069,22.198213],[113.559575,22.198089],[113.557367,22.197435],[113.556713,22.197355],[113.554846,22.194852],[113.554238,22.194099],[113.554248,22.193772],[113.5545,22.193635],[113.554755,22.193916],[113.554487,22.194273],[113.553267,22.195083],[113.553052,22.194683],[113.552132,22.193526],[113.551708,22.193188],[113.550658,22.192855],[113.550133,22.194077],[113.549843,22.193858],[113.546628,22.191892],[113.544548,22.190626],[113.544139,22.190792],[113.544014,22.191202],[113.543987,22.191863],[113.543688,22.192446],[113.543562,22.192516],[113.542022,22.19113],[113.541545,22.191589],[113.537389,22.195609],[113.53664,22.196339],[113.536414,22.19627],[113.536366,22.195758],[113.535819,22.194705],[113.535309,22.193582],[113.533952,22.191195],[113.532229,22.188679],[113.531091,22.187032],[113.530139,22.186426],[113.529666,22.185894],[113.529404,22.184449],[113.529511,22.182859],[113.529275,22.182819],[113.529066,22.183902],[113.528883,22.184295],[113.528953,22.184697]]}},{"type":"Feature","properties":{"routeCode":"10","routeName":"媽閣 ⇀  關閘"},"geometry":{"type":"LineString","coordinates":[[113.528953,22.184697],[113.528996,22.185057],[113.529254,22.185136],[113.529731,22.186155],[113.530337,22.186711],[113.530863,22.187009],[113.532442,22.189128],[113.534528,22.192265],[113.534935,22.192962],[113.534844,22.19326],[113.535112,22.193608],[113.535268,22.194025],[113.535595,22.194278],[113.53589,22.194954],[113.536315,22.195882],[113.536428,22.196481],[113.536651,22.196342],[113.537914,22.195102],[113.538563,22.194561],[113.541707,22.191582],[113.543453,22.189896],[113.543198,22.189655],[113.543367,22.189429],[113.543444,22.188977],[113.543916,22.188868],[113.544951,22.18927],[113.546647,22.189944],[113.546218,22.190947],[113.546131,22.191097],[113.546135,22.191211],[113.546239,22.191294],[113.546454,22.191394],[113.546548,22.191405],[113.546623,22.191277],[113.547744,22.191745],[113.550116,22.192648],[113.551768,22.19327],[113.552025,22.193444],[113.552185,22.193637],[113.553821,22.195763],[113.551768,22.19327],[113.552025,22.193444],[113.552185,22.193637],[113.553821,22.195763],[113.553947,22.195981],[113.554816,22.195385],[113.55547,22.196274],[113.555615,22.196339],[113.555835,22.19621],[113.557391,22.198296],[113.561993,22.199687],[113.562144,22.200104],[113.560684,22.204534],[113.560314,22.204723],[113.559912,22.204693],[113.557268,22.204287],[113.55564,22.204247],[113.554087,22.205325],[113.552061,22.207005],[113.551194,22.207784],[113.550304,22.206726],[113.549971,22.207437],[113.549751,22.208122],[113.549415,22.209128],[113.548911,22.210032],[113.548653,22.210141],[113.548326,22.210161],[113.547382,22.210252],[113.547594,22.212546],[113.547748,22.214577],[113.547893,22.214667],[113.548907,22.214503]]}}]}
