{"type":"FeatureCollection","features":[{"type":"Feature","properties":{"stopCode":"M3","stopName":"媽閣總站","marker-size":"small","marker-color":"#FFC853"},"geometry":{"type":"Point","coordinates":[113.528953,22.184697]}},{"type":"Feature","properties":{"stopCode":"M204","stopName":"媽閣廟前地","marker-size":"small","marker-color":"#FFC853"},"geometry":{"type":"Point","coordinates":[113.530863,22.187009]}},{"type":"Feature","properties":{"stopCode":"M190","stopName":"河邊新街/媽閣","marker-size":"small","marker-color":"#FFC853"},"geometry":{"type":"Point","coordinates":[113.532442,22.189128]}},{"type":"Feature","properties":{"stopCode":"M140","stopName":"河邊新街/李道巷","marker-size":"small","marker-color":"#FFC853"},"geometry":{"type":"Point","coordinates":[113.534528,22.192265]}},{"type":"Feature","properties":{"stopCode":"M137","stopName":"火船頭街","marker-size":"small","marker-color":"#FFC853"},"geometry":{"type":"Point","coordinates":[113.53589,22.194954]}},{"type":"Feature","properties":{"stopCode":"M135","stopName":"新馬路/營地大街","marker-size":"small","marker-color":"#FFC853"},"geometry":{"type":"Point","coordinates":[113.538563,22.194561]}},{"type":"Feature","properties":{"stopCode":"M170","stopName":"殷皇子馬路","marker-size":"small","marker-color":"#FFC853"},"geometry":{"type":"Point","coordinates":[113.541707,22.191582]}},{"type":"Feature","properties":{"stopCode":"M172","stopName":"亞馬喇前地","marker-size":"small","marker-color":"#FFC853"},"geometry":{"type":"Point","coordinates":[113.543367,22.189429]}},{"type":"Feature","properties":{"stopCode":"T330","stopName":"蘇利安圓形地","marker-size":"small","marker-color":"#FFC853"},"geometry":{"type":"Point","coordinates":[113.548627,22.164073]}},{"type":"Feature","properties":{"stopCode":"T405","stopName":"海洋會所","marker-size":"small","marker-color":"#FFC853"},"geometry":{"type":"Point","coordinates":[113.545474,22.163842]}},{"type":"Feature","properties":{"stopCode":"T335","stopName":"海洋廣場","marker-size":"small","marker-color":"#FFC853"},"geometry":{"type":"Point","coordinates":[113.543866,22.160968]}},{"type":"Feature","properties":{"stopCode":"T338","stopName":"氹仔衛生中心","marker-size":"small","marker-color":"#FFC853"},"geometry":{"type":"Point","coordinates":[113.54228,22.158411]}},{"type":"Feature","properties":{"stopCode":"T326","stopName":"柯維納馬路","marker-size":"small","marker-color":"#FFC853"},"geometry":{"type":"Point","coordinates":[113.545425,22.15739]}},{"type":"Feature","properties":{"stopCode":"T332","stopName":"南新花園","marker-size":"small","marker-color":"#FFC853"},"geometry":{"type":"Point","coordinates":[113.54956,22.157426]}},{"type":"Feature","properties":{"stopCode":"T340","stopName":"亞威羅街","marker-size":"small","marker-color":"#FFC853"},"geometry":{"type":"Point","coordinates":[113.553424,22.157519]}},{"type":"Feature","properties":{"stopCode":"T351","stopName":"布拉干薩街","marker-size":"small","marker-color":"#FFC853"},"geometry":{"type":"Point","coordinates":[113.552628,22.15872]}},{"type":"Feature","properties":{"stopCode":"T353","stopName":"廣東大馬路/成都街","marker-size":"small","marker-color":"#FFC853"},"geometry":{"type":"Point","coordinates":[113.552577,22.159632]}},{"type":"Feature","properties":{"stopCode":"T346","stopName":"廣東大馬路/鴻發","marker-size":"small","marker-color":"#FFC853"},"geometry":{"type":"Point","coordinates":[113.554575,22.161867]}},{"type":"Feature","properties":{"stopCode":"T304","stopName":"氹仔大中華廣場","marker-size":"small","marker-color":"#FFC853"},"geometry":{"type":"Point","coordinates":[113.556702,22.160685]}},{"type":"Feature","properties":{"stopCode":"T309","stopName":"泉亮花園","marker-size":"small","marker-color":"#FFC853"},"geometry":{"type":"Point","coordinates":[113.558219,22.159096]}},{"type":"Feature","properties":{"stopCode":"T310","stopName":"孫逸仙馬路/三家村","marker-size":"small","marker-color":"#FFC853"},"geometry":{"type":"Point","coordinates":[113.559475,22.157756]}},{"type":"Feature","properties":{"stopCode":"T318","stopName":"泉悅花園","marker-size":"small","marker-color":"#FFC853"},"geometry":{"type":"Point","coordinates":[113.559495,22.156261]}},{"type":"Feature","properties":{"stopCode":"T319","stopName":"嘉模泳池","marker-size":"small","marker-color":"#FFC853"},"geometry":{"type":"Point","coordinates":[113.559214,22.154966]}},{"type":"Feature","properties":{"stopCode":"T320","stopName":"氹仔官也街","marker-size":"small","marker-color":"#FFC853"},"geometry":{"type":"Point","coordinates":[113.55714,22.153048]}},{"type":"Feature","properties":{"stopCode":"T321","stopName":"氹仔中葡小學","marker-size":"small","marker-color":"#FFC853"},"geometry":{"type":"Point","coordinates":[113.555283,22.152125]}},{"type":"Feature","properties":{"stopCode":"T323","stopName":"黑橋/地堡街","marker-size":"small","marker-color":"#FFC853"},"geometry":{"type":"Point","coordinates":[113.556217,22.154494]}},{"type":"Feature","properties":{"stopCode":"T324","stopName":"澳門運動場","marker-size":"small","marker-color":"#FFC853"},"geometry":{"type":"Point","coordinates":[113.554995,22.155454]}},{"type":"Feature","properties":{"stopCode":"T325","stopName":"華寶花園","marker-size":"small","marker-color":"#FFC853"},"geometry":{"type":"Point","coordinates":[113.555084,22.155558]}},{"type":"Feature","properties":{"stopCode":"T339","stopName":"花城公園","marker-size":"small","marker-color":"#FFC853"},"geometry":{"type":"Point","coordinates":[113.55679,22.155853]}},{"type":"Feature","properties":{"stopCode":"T317","stopName":"氹仔花城","marker-size":"small","marker-color":"#FFC853"},"geometry":{"type":"Point","coordinates":[113.559377,22.156772]}},{"type":"Feature","properties":{"stopCode":"T408","stopName":"湖畔大廈","marker-size":"small","marker-color":"#FFC853"},"geometry":{"type":"Point","coordinates":[113.561635,22.158409]}},{"type":"Feature","properties":{"stopCode":"T341","stopName":"徐日昇寅公馬路","marker-size":"small","marker-color":"#FFC853"},"geometry":{"type":"Point","coordinates":[113.559533,22.161866]}},{"type":"Feature","properties":{"stopCode":"T303","stopName":"澳大圖書館","marker-size":"small","marker-color":"#FFC853"},"geometry":{"type":"Point","coordinates":[113.559334,22.163493]}},{"type":"Feature","properties":{"stopCode":"T305","stopName":"澳門大學","marker-size":"small","marker-color":"#FFC853"},"geometry":{"type":"Point","coordinates":[113.556374,22.163836]}},{"type":"Feature","properties":{"stopCode":"T307","stopName":"新世紀酒店","marker-size":"small","marker-color":"#FFC853"},"geometry":{"type":"Point","coordinates":[113.554995,22.162567]}},{"type":"Feature","properties":{"stopCode":"T300","stopName":"史伯泰/盧廉若","marker-size":"small","marker-color":"#FFC853"},"geometry":{"type":"Point","coordinates":[113.552805,22.162646]}},{"type":"Feature","properties":{"stopCode":"T330","stopName":"蘇利安圓形地","marker-size":"small","marker-color":"#FFC853"},"geometry":{"type":"Point","coordinates":[113.548627,22.164073]}},{"type":"Feature","properties":{"stopCode":"M172","stopName":"亞馬喇前地","marker-size":"small","marker-color":"#FFC853"},"geometry":{"type":"Point","coordinates":[113.543367,22.189429]}},{"type":"Feature","properties":{"stopCode":"M171","stopName":"中區/殷皇子馬路","marker-size":"small","marker-color":"#FFC853"},"geometry":{"type":"Point","coordinates":[113.541545,22.191589]}},{"type":"Feature","properties":{"stopCode":"M142","stopName":"金碧文娛中心","marker-size":"small","marker-color":"#FFC853"},"geometry":{"type":"Point","coordinates":[113.537389,22.195609]}},{"type":"Feature","properties":{"stopCode":"M136","stopName":"粵通碼頭","marker-size":"small","marker-color":"#FFC853"},"geometry":{"type":"Point","coordinates":[113.536366,22.195758]}},{"type":"Feature","properties":{"stopCode":"M139","stopName":"司打口","marker-size":"small","marker-color":"#FFC853"},"geometry":{"type":"Point","coordinates":[113.535309,22.193582]}},{"type":"Feature","properties":{"stopCode":"M184","stopName":"河邊新街/街市","marker-size":"small","marker-color":"#FFC853"},"geometry":{"type":"Point","coordinates":[113.533952,22.191195]}},{"type":"Feature","properties":{"stopCode":"M188","stopName":"河邊新街/下環","marker-size":"small","marker-color":"#FFC853"},"geometry":{"type":"Point","coordinates":[113.532229,22.188679]}},{"type":"Feature","properties":{"stopCode":"M203","stopName":"媽閣廟站","marker-size":"small","marker-color":"#FFC853"},"geometry":{"type":"Point","coordinates":[113.531091,22.187032]}},{"type":"Feature","properties":{"stopCode":"M3","stopName":"媽閣總站","marker-size":"small","marker-color":"#FFC853"},"geometry":{"type":"Point","coordinates":[113.528953,22.184697]}},{"type":"Feature","properties":{"routeCode":"11","routeName":"媽閣 ↻ 氹仔"},"geometry":{"type":"LineString","coordinates":[[113.528953,22.184697],[113.528996,22.185057],[113.529254,22.185136],[113.529731,22.186155],[113.530337,22.186711],[113.530863,22.187009],[113.532442,22.189128],[113.534528,22.192265],[113.534935,22.192962],[113.534844,22.19326],[113.535112,22.193608],[113.535268,22.194025],[113.535595,22.194278],[113.53589,22.194954],[113.536315,22.195882],[113.536428,22.196481],[113.536651,22.196342],[113.537914,22.195102],[113.538563,22.194561],[113.541707,22.191582],[113.543453,22.189896],[113.543198,22.189655],[113.543367,22.189429],[113.543444,22.18898],[113.543884,22.18886],[113.544168,22.188433],[113.544028,22.187966],[113.543878,22.187609],[113.543798,22.187196],[113.548754,22.165061],[113.548879,22.164746],[113.549058,22.164432],[113.549135,22.164271],[113.549058,22.164104],[113.54891,22.164042],[113.548627,22.164073],[113.547274,22.164241],[113.545474,22.163842],[113.544424,22.163566],[113.544136,22.163351],[113.543921,22.162984],[113.5439,22.162592],[113.544055,22.161846],[113.544054,22.161549],[113.543984,22.161187],[113.543866,22.160968],[113.54383,22.160855],[113.543631,22.160597],[113.542851,22.160152],[113.5424,22.15977],[113.542223,22.159474],[113.542143,22.159077],[113.54217,22.158721],[113.542261,22.158495],[113.54228,22.158411],[113.542888,22.157358],[113.543052,22.157174],[113.543248,22.157184],[113.54342,22.157055],[113.543495,22.156871],[113.543639,22.156824],[113.543808,22.156886],[113.544289,22.157179],[113.544618,22.157313],[113.54504,22.157373],[113.545425,22.15739],[113.54956,22.157426],[113.550015,22.157387],[113.550656,22.157397],[113.550932,22.15734],[113.55244,22.156699],[113.553424,22.157519],[113.553626,22.157662],[113.552628,22.15872],[113.551976,22.159413],[113.552164,22.159448],[113.552577,22.159632],[113.553212,22.159984],[113.553867,22.160535],[113.554237,22.160992],[113.554371,22.161256],[113.554575,22.161867],[113.554685,22.1621],[113.554671,22.162378],[113.554556,22.162485],[113.554543,22.162621],[113.554631,22.162713],[113.55484,22.162698],[113.555044,22.162547],[113.555093,22.162371],[113.556702,22.160685],[113.556951,22.160401],[113.557423,22.159959],[113.557617,22.15998],[113.557801,22.159887],[113.557871,22.159732],[113.557818,22.159557],[113.558219,22.159096],[113.559475,22.157756],[113.559886,22.157345],[113.56003,22.15728],[113.560191,22.157198],[113.560234,22.157045],[113.560218,22.156913],[113.560159,22.156816],[113.560071,22.156754],[113.559918,22.156769],[113.559853,22.156814],[113.559636,22.156776],[113.559456,22.156672],[113.559495,22.156261],[113.559461,22.155843],[113.559214,22.154966],[113.55907,22.154553],[113.558046,22.153507],[113.557509,22.153251],[113.557259,22.153095],[113.55714,22.153048],[113.556041,22.152477],[113.555283,22.152125],[113.555024,22.152046],[113.555009,22.152295],[113.555059,22.152664],[113.556373,22.154241],[113.556217,22.154494],[113.555911,22.15504],[113.555648,22.155169],[113.554995,22.155454],[113.553952,22.155876],[113.553666,22.155937],[113.553483,22.15585],[113.553207,22.15586],[113.552998,22.156026],[113.552955,22.156242],[113.553057,22.156468],[113.553266,22.156571],[113.553499,22.156582],[113.553666,22.156473],[113.553765,22.156327],[113.553773,22.156175],[113.55399,22.156009],[113.555084,22.155558],[113.555567,22.155293],[113.555927,22.155293],[113.55679,22.155853],[113.557337,22.156217],[113.557777,22.156396],[113.559279,22.156712],[113.559377,22.156772],[113.559553,22.156794],[113.559794,22.157002],[113.559832,22.157139],[113.559979,22.157271],[113.560111,22.157268],[113.560167,22.157206],[113.560309,22.157263],[113.560401,22.157284],[113.560993,22.157753],[113.561028,22.157894],[113.561203,22.158073],[113.561635,22.158409],[113.56194,22.158654],[113.562251,22.159216],[113.56242,22.1598],[113.56234,22.160038],[113.560725,22.161419],[113.560556,22.161429],[113.560123,22.161414],[113.559782,22.16134],[113.559714,22.161357],[113.559683,22.161412],[113.559533,22.161866],[113.559446,22.162095],[113.559435,22.162171],[113.559416,22.162256],[113.559424,22.162336],[113.559364,22.162898],[113.559334,22.163493],[113.559337,22.164061],[113.559237,22.164271],[113.559144,22.164393],[113.558923,22.164559],[113.55877,22.164604],[113.558563,22.164617],[113.558199,22.164583],[113.557055,22.164405],[113.556809,22.164307],[113.556611,22.164153],[113.556535,22.164057],[113.55657,22.164015],[113.556572,22.163968],[113.556558,22.163918],[113.556502,22.163885],[113.556432,22.163871],[113.55638,22.163892],[113.556352,22.163873],[113.556374,22.163836],[113.55619,22.163742],[113.555034,22.163055],[113.55487,22.162938],[113.554847,22.16289],[113.554834,22.162789],[113.554862,22.162696],[113.554995,22.162567],[113.555074,22.162494],[113.555079,22.162363],[113.555028,22.162292],[113.554913,22.162265],[113.55468,22.162376],[113.554561,22.162479],[113.554418,22.162562],[113.554052,22.162649],[113.553825,22.162672],[113.553144,22.162608],[113.552805,22.162646],[113.552496,22.162716],[113.552029,22.162886],[113.550881,22.163438],[113.549907,22.163864],[113.549559,22.163955],[113.548627,22.164073],[113.548387,22.164087],[113.548282,22.164114],[113.548231,22.164306],[113.548254,22.164438],[113.548359,22.164509],[113.548509,22.164656],[113.54864,22.164827],[113.548698,22.164977],[113.548719,22.165163],[113.543792,22.187191],[113.543578,22.18746],[113.543251,22.187812],[113.542923,22.188076],[113.542848,22.188429],[113.542972,22.188776],[113.543326,22.188985],[113.543449,22.188994],[113.543367,22.189429],[113.543336,22.189509],[113.54321,22.189653],[113.543339,22.189807],[113.542261,22.190897],[113.542191,22.191026],[113.541952,22.191178],[113.541545,22.191589],[113.537389,22.195609],[113.53664,22.196339],[113.536414,22.19627],[113.536366,22.195758],[113.535819,22.194705],[113.535309,22.193582],[113.533952,22.191195],[113.532229,22.188679],[113.531091,22.187032],[113.530139,22.186426],[113.529666,22.185894],[113.529404,22.184449],[113.529511,22.182859],[113.529275,22.182819],[113.529066,22.183902],[113.528883,22.184295],[113.528953,22.184697]]}}]}
