{"type":"FeatureCollection","features":[{"type":"Feature","properties":{"stopCode":"M1","stopName":"關閘總站","marker-size":"small","marker-color":"#FFC853"},"geometry":{"type":"Point","coordinates":[113.548907,22.214503]}},{"type":"Feature","properties":{"stopCode":"M225","stopName":"看台街/騎士馬路","marker-size":"small","marker-color":"#FFC853"},"geometry":{"type":"Point","coordinates":[113.549406,22.213254]}},{"type":"Feature","properties":{"stopCode":"M7","stopName":"關閘馬路","marker-size":"small","marker-color":"#FFC853"},"geometry":{"type":"Point","coordinates":[113.548544,22.212353]}},{"type":"Feature","properties":{"stopCode":"M229","stopName":"三角花園","marker-size":"small","marker-color":"#FFC853"},"geometry":{"type":"Point","coordinates":[113.54823,22.210429]}},{"type":"Feature","properties":{"stopCode":"M271","stopName":"市政狗房","marker-size":"small","marker-color":"#FFC853"},"geometry":{"type":"Point","coordinates":[113.546565,22.206847]}},{"type":"Feature","properties":{"stopCode":"M105","stopName":"望廈炮台","marker-size":"small","marker-color":"#FFC853"},"geometry":{"type":"Point","coordinates":[113.547939,22.205698]}},{"type":"Feature","properties":{"stopCode":"M272","stopName":"愉景花園","marker-size":"small","marker-color":"#FFC853"},"geometry":{"type":"Point","coordinates":[113.549391,22.204492]}},{"type":"Feature","properties":{"stopCode":"M61","stopName":"二龍喉公園","marker-size":"small","marker-color":"#FFC853"},"geometry":{"type":"Point","coordinates":[113.550751,22.200951]}},{"type":"Feature","properties":{"stopCode":"M73","stopName":"得勝花園","marker-size":"small","marker-color":"#FFC853"},"geometry":{"type":"Point","coordinates":[113.549187,22.199665]}},{"type":"Feature","properties":{"stopCode":"M270","stopName":"塔石體育館","marker-size":"small","marker-color":"#FFC853"},"geometry":{"type":"Point","coordinates":[113.547291,22.197672]}},{"type":"Feature","properties":{"stopCode":"M153","stopName":"水坑尾/公共行政大樓","marker-size":"small","marker-color":"#FFC853"},"geometry":{"type":"Point","coordinates":[113.543678,22.194044]}},{"type":"Feature","properties":{"stopCode":"M173","stopName":"約翰四世大馬路","marker-size":"small","marker-color":"#FFC853"},"geometry":{"type":"Point","coordinates":[113.542941,22.191956]}},{"type":"Feature","properties":{"stopCode":"M172","stopName":"亞馬喇前地","marker-size":"small","marker-color":"#FFC853"},"geometry":{"type":"Point","coordinates":[113.543367,22.189429]}},{"type":"Feature","properties":{"stopCode":"T403","stopName":"史伯泰/麗景灣","marker-size":"small","marker-color":"#FFC853"},"geometry":{"type":"Point","coordinates":[113.553933,22.162727]}},{"type":"Feature","properties":{"stopCode":"T402","stopName":"泉澧花園","marker-size":"small","marker-color":"#FFC853"},"geometry":{"type":"Point","coordinates":[113.556044,22.161382]}},{"type":"Feature","properties":{"stopCode":"T309","stopName":"泉亮花園","marker-size":"small","marker-color":"#FFC853"},"geometry":{"type":"Point","coordinates":[113.558219,22.159096]}},{"type":"Feature","properties":{"stopCode":"T310","stopName":"孫逸仙馬路/三家村","marker-size":"small","marker-color":"#FFC853"},"geometry":{"type":"Point","coordinates":[113.559475,22.157756]}},{"type":"Feature","properties":{"stopCode":"T368","stopName":"奧林匹克大馬路","marker-size":"small","marker-color":"#FFC853"},"geometry":{"type":"Point","coordinates":[113.558845,22.156537]}},{"type":"Feature","properties":{"stopCode":"T324","stopName":"澳門運動場","marker-size":"small","marker-color":"#FFC853"},"geometry":{"type":"Point","coordinates":[113.554995,22.155454]}},{"type":"Feature","properties":{"stopCode":"T347","stopName":"運動場圓形地","marker-size":"small","marker-color":"#FFC853"},"geometry":{"type":"Point","coordinates":[113.552366,22.154724]}},{"type":"Feature","properties":{"stopCode":"T362","stopName":"奧林匹克游泳館","marker-size":"small","marker-color":"#FFC853"},"geometry":{"type":"Point","coordinates":[113.552932,22.151626]}},{"type":"Feature","properties":{"stopCode":"T364","stopName":"望德聖母灣馬路/軍營","marker-size":"small","marker-color":"#FFC853"},"geometry":{"type":"Point","coordinates":[113.556088,22.150356]}},{"type":"Feature","properties":{"stopCode":"T366","stopName":"望德聖母灣馬路/紅樹林","marker-size":"small","marker-color":"#FFC853"},"geometry":{"type":"Point","coordinates":[113.562275,22.150684]}},{"type":"Feature","properties":{"stopCode":"T375","stopName":"連貫公路/新濠天地","marker-size":"small","marker-color":"#FFC853"},"geometry":{"type":"Point","coordinates":[113.563999,22.149708]}},{"type":"Feature","properties":{"stopCode":"T379","stopName":"連貫公路/金沙城中心","marker-size":"small","marker-color":"#FFC853"},"geometry":{"type":"Point","coordinates":[113.563755,22.144793]}},{"type":"Feature","properties":{"stopCode":"T359","stopName":"蓮花圓形地-1","marker-size":"small","marker-color":"#FFC853"},"geometry":{"type":"Point","coordinates":[113.564021,22.138762]}},{"type":"Feature","properties":{"stopCode":"T357_1","stopName":"路氹邊檢大樓","marker-size":"small","marker-color":"#FFC853"},"geometry":{"type":"Point","coordinates":[113.55946,22.139176]}},{"type":"Feature","properties":{"stopCode":"C690","stopName":"石排灣總站","marker-size":"small","marker-color":"#FFC853"},"geometry":{"type":"Point","coordinates":[113.562958,22.129705]}},{"type":"Feature","properties":{"stopCode":"C691","stopName":"石排灣/居雅大廈","marker-size":"small","marker-color":"#FFC853"},"geometry":{"type":"Point","coordinates":[113.561114,22.129606]}},{"type":"Feature","properties":{"stopCode":"C652","stopName":"路環石礦場","marker-size":"small","marker-color":"#FFC853"},"geometry":{"type":"Point","coordinates":[113.558708,22.128168]}},{"type":"Feature","properties":{"stopCode":"C655","stopName":"石排灣郊野公園","marker-size":"small","marker-color":"#FFC853"},"geometry":{"type":"Point","coordinates":[113.555536,22.125579]}},{"type":"Feature","properties":{"stopCode":"C657","stopName":"路環警察訓練營-1","marker-size":"small","marker-color":"#FFC853"},"geometry":{"type":"Point","coordinates":[113.553514,22.120409]}},{"type":"Feature","properties":{"stopCode":"C660","stopName":"路環市區-1","marker-size":"small","marker-color":"#FFC853"},"geometry":{"type":"Point","coordinates":[113.552292,22.117925]}},{"type":"Feature","properties":{"stopCode":"C662","stopName":"路環監獄-1","marker-size":"small","marker-color":"#FFC853"},"geometry":{"type":"Point","coordinates":[113.554977,22.118131]}},{"type":"Feature","properties":{"stopCode":"C664","stopName":"竹灣泳池-1","marker-size":"small","marker-color":"#FFC853"},"geometry":{"type":"Point","coordinates":[113.557804,22.114778]}},{"type":"Feature","properties":{"stopCode":"C666","stopName":"竹灣馬路-1","marker-size":"small","marker-color":"#FFC853"},"geometry":{"type":"Point","coordinates":[113.559978,22.114099]}},{"type":"Feature","properties":{"stopCode":"C677","stopName":"竹灣燒烤公園-1","marker-size":"small","marker-color":"#FFC853"},"geometry":{"type":"Point","coordinates":[113.562483,22.114453]}},{"type":"Feature","properties":{"stopCode":"C667","stopName":"竹灣海灘-1","marker-size":"small","marker-color":"#FFC853"},"geometry":{"type":"Point","coordinates":[113.563827,22.11312]}},{"type":"Feature","properties":{"stopCode":"C676","stopName":"竹灣豪園-1","marker-size":"small","marker-color":"#FFC853"},"geometry":{"type":"Point","coordinates":[113.566251,22.113318]}},{"type":"Feature","properties":{"stopCode":"C680","stopName":"黑沙/海蘭花苑","marker-size":"small","marker-color":"#FFC853"},"geometry":{"type":"Point","coordinates":[113.569519,22.116486]}},{"type":"Feature","properties":{"stopCode":"C669","stopName":"黑沙海灘","marker-size":"small","marker-color":"#FFC853"},"geometry":{"type":"Point","coordinates":[113.569358,22.118829]}},{"type":"Feature","properties":{"stopCode":"C669","stopName":"黑沙海灘","marker-size":"small","marker-color":"#7F642A"},"geometry":{"type":"Point","coordinates":[113.569358,22.118829]}},{"type":"Feature","properties":{"stopCode":"C658","stopName":"黑沙青年旅舍","marker-size":"small","marker-color":"#7F642A"},"geometry":{"type":"Point","coordinates":[113.569608,22.116481]}},{"type":"Feature","properties":{"stopCode":"C675","stopName":"竹灣豪園-2","marker-size":"small","marker-color":"#7F642A"},"geometry":{"type":"Point","coordinates":[113.566673,22.113174]}},{"type":"Feature","properties":{"stopCode":"C668","stopName":"竹灣海灘-2","marker-size":"small","marker-color":"#7F642A"},"geometry":{"type":"Point","coordinates":[113.563374,22.112812]}},{"type":"Feature","properties":{"stopCode":"C678","stopName":"竹灣燒烤公園-2","marker-size":"small","marker-color":"#7F642A"},"geometry":{"type":"Point","coordinates":[113.562677,22.113661]}},{"type":"Feature","properties":{"stopCode":"C665","stopName":"竹灣馬路-2","marker-size":"small","marker-color":"#7F642A"},"geometry":{"type":"Point","coordinates":[113.5602,22.114158]}},{"type":"Feature","properties":{"stopCode":"C663","stopName":"竹灣泳池-2","marker-size":"small","marker-color":"#7F642A"},"geometry":{"type":"Point","coordinates":[113.55796,22.114574]}},{"type":"Feature","properties":{"stopCode":"C661","stopName":"路環監獄-2","marker-size":"small","marker-color":"#7F642A"},"geometry":{"type":"Point","coordinates":[113.555007,22.118066]}},{"type":"Feature","properties":{"stopCode":"C659","stopName":"路環市區-2","marker-size":"small","marker-color":"#7F642A"},"geometry":{"type":"Point","coordinates":[113.551835,22.117846]}},{"type":"Feature","properties":{"stopCode":"C656","stopName":"路環警察訓練營-2","marker-size":"small","marker-color":"#7F642A"},"geometry":{"type":"Point","coordinates":[113.553447,22.120534]}},{"type":"Feature","properties":{"stopCode":"C654","stopName":"聯生圓形地","marker-size":"small","marker-color":"#7F642A"},"geometry":{"type":"Point","coordinates":[113.554397,22.124861]}},{"type":"Feature","properties":{"stopCode":"C653","stopName":"石排灣自然教育中心","marker-size":"small","marker-color":"#7F642A"},"geometry":{"type":"Point","coordinates":[113.558309,22.12736]}},{"type":"Feature","properties":{"stopCode":"C692","stopName":"石排灣/樂群樓","marker-size":"small","marker-color":"#7F642A"},"geometry":{"type":"Point","coordinates":[113.561212,22.129603]}},{"type":"Feature","properties":{"stopCode":"C690","stopName":"石排灣總站","marker-size":"small","marker-color":"#7F642A"},"geometry":{"type":"Point","coordinates":[113.562958,22.129705]}},{"type":"Feature","properties":{"stopCode":"T357_1","stopName":"路氹邊檢大樓","marker-size":"small","marker-color":"#7F642A"},"geometry":{"type":"Point","coordinates":[113.55946,22.139176]}},{"type":"Feature","properties":{"stopCode":"T360","stopName":"蓮花圓形地-2","marker-size":"small","marker-color":"#7F642A"},"geometry":{"type":"Point","coordinates":[113.56327,22.140129]}},{"type":"Feature","properties":{"stopCode":"T376","stopName":"連貫公路/威尼斯人","marker-size":"small","marker-color":"#7F642A"},"geometry":{"type":"Point","coordinates":[113.563538,22.146645]}},{"type":"Feature","properties":{"stopCode":"T367","stopName":"望德聖母灣馬路/連貫公路","marker-size":"small","marker-color":"#7F642A"},"geometry":{"type":"Point","coordinates":[113.562187,22.15048]}},{"type":"Feature","properties":{"stopCode":"T365","stopName":"望德聖母灣馬路/銀河","marker-size":"small","marker-color":"#7F642A"},"geometry":{"type":"Point","coordinates":[113.556081,22.150206]}},{"type":"Feature","properties":{"stopCode":"T363","stopName":"奧林匹克游泳館圓形地","marker-size":"small","marker-color":"#7F642A"},"geometry":{"type":"Point","coordinates":[113.552313,22.151671]}},{"type":"Feature","properties":{"stopCode":"T361","stopName":"運動場道","marker-size":"small","marker-color":"#7F642A"},"geometry":{"type":"Point","coordinates":[113.55268,22.155839]}},{"type":"Feature","properties":{"stopCode":"T325","stopName":"華寶花園","marker-size":"small","marker-color":"#7F642A"},"geometry":{"type":"Point","coordinates":[113.555084,22.155558]}},{"type":"Feature","properties":{"stopCode":"T339","stopName":"花城公園","marker-size":"small","marker-color":"#7F642A"},"geometry":{"type":"Point","coordinates":[113.55679,22.155853]}},{"type":"Feature","properties":{"stopCode":"T317","stopName":"氹仔花城","marker-size":"small","marker-color":"#7F642A"},"geometry":{"type":"Point","coordinates":[113.559377,22.156772]}},{"type":"Feature","properties":{"stopCode":"T311","stopName":"亞利雅架前地","marker-size":"small","marker-color":"#7F642A"},"geometry":{"type":"Point","coordinates":[113.559405,22.157685]}},{"type":"Feature","properties":{"stopCode":"T312","stopName":"寶龍花園","marker-size":"small","marker-color":"#7F642A"},"geometry":{"type":"Point","coordinates":[113.558309,22.158837]}},{"type":"Feature","properties":{"stopCode":"T308","stopName":"氹仔電訊","marker-size":"small","marker-color":"#7F642A"},"geometry":{"type":"Point","coordinates":[113.556368,22.160903]}},{"type":"Feature","properties":{"stopCode":"T300","stopName":"史伯泰/盧廉若","marker-size":"small","marker-color":"#7F642A"},"geometry":{"type":"Point","coordinates":[113.552805,22.162646]}},{"type":"Feature","properties":{"stopCode":"T330","stopName":"蘇利安圓形地","marker-size":"small","marker-color":"#7F642A"},"geometry":{"type":"Point","coordinates":[113.548627,22.164073]}},{"type":"Feature","properties":{"stopCode":"M172","stopName":"亞馬喇前地","marker-size":"small","marker-color":"#7F642A"},"geometry":{"type":"Point","coordinates":[113.543367,22.189429]}},{"type":"Feature","properties":{"stopCode":"M69","stopName":"葡京酒店","marker-size":"small","marker-color":"#7F642A"},"geometry":{"type":"Point","coordinates":[113.544951,22.18927]}},{"type":"Feature","properties":{"stopCode":"M160","stopName":"十月一日前地","marker-size":"small","marker-color":"#7F642A"},"geometry":{"type":"Point","coordinates":[113.546218,22.190947]}},{"type":"Feature","properties":{"stopCode":"M158","stopName":"北京街/假日酒店","marker-size":"small","marker-color":"#7F642A"},"geometry":{"type":"Point","coordinates":[113.547744,22.191745]}},{"type":"Feature","properties":{"stopCode":"M243","stopName":"何賢公園","marker-size":"small","marker-color":"#7F642A"},"geometry":{"type":"Point","coordinates":[113.548682,22.19279]}},{"type":"Feature","properties":{"stopCode":"M157","stopName":"治安警察局","marker-size":"small","marker-color":"#7F642A"},"geometry":{"type":"Point","coordinates":[113.546628,22.191892]}},{"type":"Feature","properties":{"stopCode":"M169","stopName":"教育暨青年局","marker-size":"small","marker-color":"#7F642A"},"geometry":{"type":"Point","coordinates":[113.543987,22.191863]}},{"type":"Feature","properties":{"stopCode":"M144","stopName":"水坑尾街","marker-size":"small","marker-color":"#7F642A"},"geometry":{"type":"Point","coordinates":[113.543446,22.193837]}},{"type":"Feature","properties":{"stopCode":"M76","stopName":"盧廉若公園","marker-size":"small","marker-color":"#7F642A"},"geometry":{"type":"Point","coordinates":[113.548287,22.200179]}},{"type":"Feature","properties":{"stopCode":"M84","stopName":"高士德/培正","marker-size":"small","marker-color":"#7F642A"},"geometry":{"type":"Point","coordinates":[113.54851,22.201497]}},{"type":"Feature","properties":{"stopCode":"M91","stopName":"高士德/亞利鴉架街","marker-size":"small","marker-color":"#7F642A"},"geometry":{"type":"Point","coordinates":[113.546144,22.20363]}},{"type":"Feature","properties":{"stopCode":"M17","stopName":"提督馬路/白朗古","marker-size":"small","marker-color":"#7F642A"},"geometry":{"type":"Point","coordinates":[113.545709,22.207213]}},{"type":"Feature","properties":{"stopCode":"M19","stopName":"白朗古將軍馬路","marker-size":"small","marker-color":"#7F642A"},"geometry":{"type":"Point","coordinates":[113.544766,22.20943]}},{"type":"Feature","properties":{"stopCode":"M10","stopName":"台山街市","marker-size":"small","marker-color":"#7F642A"},"geometry":{"type":"Point","coordinates":[113.546281,22.210435]}},{"type":"Feature","properties":{"stopCode":"M8","stopName":"巴波沙大馬路","marker-size":"small","marker-color":"#7F642A"},"geometry":{"type":"Point","coordinates":[113.547594,22.212546]}},{"type":"Feature","properties":{"stopCode":"M1","stopName":"關閘總站","marker-size":"small","marker-color":"#7F642A"},"geometry":{"type":"Point","coordinates":[113.548907,22.214503]}},{"type":"Feature","properties":{"routeCode":"25","routeName":"關閘 ⇀  黑沙海灘"},"geometry":{"type":"LineString","coordinates":[[113.548907,22.214503],[113.549996,22.21435],[113.549828,22.213199],[113.549406,22.213254],[113.548738,22.213338],[113.548544,22.212353],[113.548327,22.211252],[113.548371,22.210987],[113.54823,22.210429],[113.548158,22.210179],[113.547531,22.210243],[113.545897,22.207367],[113.546565,22.206847],[113.547939,22.205698],[113.549391,22.204492],[113.550353,22.203749],[113.550777,22.203351],[113.552433,22.202001],[113.552467,22.201876],[113.552422,22.201742],[113.551666,22.201448],[113.551171,22.201283],[113.551042,22.201217],[113.550751,22.200951],[113.549187,22.199665],[113.548342,22.198909],[113.547291,22.197672],[113.54584,22.195926],[113.544847,22.195688],[113.543678,22.194044],[113.543456,22.193699],[113.543457,22.193541],[113.543628,22.193211],[113.54358,22.192541],[113.542941,22.191956],[113.542103,22.191185],[113.543446,22.189894],[113.5432,22.189662],[113.543344,22.189504],[113.543367,22.189429],[113.543444,22.18898],[113.543884,22.18886],[113.544168,22.188433],[113.544028,22.187966],[113.543878,22.187609],[113.543798,22.187196],[113.548754,22.165061],[113.548862,22.164783],[113.549247,22.164437],[113.549677,22.164142],[113.550688,22.163712],[113.55071,22.163665],[113.551976,22.163044],[113.552328,22.162889],[113.552912,22.162738],[113.553266,22.162716],[113.553611,22.162749],[113.553933,22.162727],[113.55439,22.162656],[113.554555,22.162662],[113.554637,22.162718],[113.554772,22.162717],[113.554887,22.162684],[113.555002,22.162604],[113.555058,22.162522],[113.555088,22.162368],[113.556044,22.161382],[113.556943,22.160401],[113.557429,22.159954],[113.557617,22.159995],[113.557807,22.159884],[113.557871,22.159745],[113.557823,22.159542],[113.558219,22.159096],[113.559475,22.157756],[113.559883,22.15735],[113.560006,22.157283],[113.56017,22.157219],[113.560224,22.157077],[113.560226,22.15695],[113.560154,22.156801],[113.560068,22.156739],[113.559907,22.156766],[113.559848,22.156814],[113.559658,22.156779],[113.559448,22.156667],[113.558845,22.156537],[113.557692,22.156272],[113.557321,22.156073],[113.55597,22.155204],[113.555578,22.155174],[113.554995,22.155454],[113.553877,22.155885],[113.553658,22.155934],[113.553443,22.15582],[113.553191,22.155842],[113.552834,22.155723],[113.552366,22.154724],[113.552249,22.154615],[113.552137,22.154593],[113.551144,22.152595],[113.551217,22.152411],[113.551408,22.15222],[113.552932,22.151626],[113.556088,22.150356],[113.557581,22.150103],[113.559532,22.150042],[113.560328,22.150142],[113.562275,22.150684],[113.563399,22.151001],[113.563507,22.151299],[113.563877,22.151468],[113.564215,22.151369],[113.564419,22.151055],[113.564402,22.150722],[113.564102,22.150474],[113.564016,22.150275],[113.563999,22.149708],[113.563755,22.144793],[113.563488,22.139663],[113.563562,22.13943],[113.563796,22.139312],[113.563963,22.139098],[113.56403,22.138905],[113.564021,22.138762],[113.563764,22.138355],[113.563389,22.138236],[113.56297,22.138325],[113.562686,22.138609],[113.561785,22.138773],[113.56076,22.138952],[113.559918,22.138986],[113.55946,22.139176],[113.559907,22.13919],[113.560835,22.139175],[113.561001,22.139339],[113.562788,22.139185],[113.563137,22.139438],[113.563576,22.139429],[113.563947,22.139165],[113.563995,22.138698],[113.563807,22.138385],[113.563485,22.138236],[113.563313,22.137953],[113.563008,22.131873],[113.563043,22.131664],[113.56314,22.131554],[113.563123,22.131371],[113.562941,22.131262],[113.562927,22.130914],[113.562958,22.129705],[113.562954,22.128835],[113.561114,22.12883],[113.561114,22.129606],[113.561127,22.130484],[113.560272,22.130479],[113.559934,22.13036],[113.559789,22.130037],[113.558799,22.129187],[113.558837,22.128625],[113.558708,22.128168],[113.558449,22.127383],[113.558169,22.126921],[113.557745,22.126536],[113.557289,22.126288],[113.555932,22.125868],[113.555536,22.125579],[113.55331,22.123848],[113.553062,22.123423],[113.552944,22.122623],[113.552992,22.122026],[113.553514,22.120409],[113.55366,22.119883],[113.553572,22.119591],[113.552676,22.118776],[113.552392,22.118379],[113.551858,22.118115],[113.551933,22.117994],[113.551925,22.117889],[113.552052,22.117857],[113.552292,22.117925],[113.553985,22.118347],[113.554382,22.118351],[113.554977,22.118131],[113.555299,22.117961],[113.555471,22.117822],[113.556774,22.116291],[113.557284,22.115367],[113.557434,22.115153],[113.557804,22.114778],[113.558245,22.114286],[113.558373,22.114209],[113.559204,22.113913],[113.559583,22.113903],[113.559978,22.114099],[113.561655,22.114781],[113.561865,22.114756],[113.562483,22.114453],[113.562659,22.114343],[113.562809,22.114169],[113.562836,22.113931],[113.562434,22.1132],[113.56245,22.112847],[113.562761,22.112609],[113.563238,22.112733],[113.563827,22.11312],[113.564172,22.113195],[113.565561,22.113419],[113.565738,22.113424],[113.566251,22.113318],[113.567031,22.113088],[113.567299,22.113116],[113.567619,22.113407],[113.567854,22.113911],[113.567838,22.114102],[113.56739,22.114733],[113.567656,22.114907],[113.567739,22.115039],[113.567846,22.115387],[113.567962,22.115507],[113.568045,22.115553],[113.568463,22.115618],[113.56912,22.115777],[113.569329,22.115881],[113.569464,22.116018],[113.569539,22.116167],[113.569519,22.116486],[113.569589,22.116745],[113.569527,22.116884],[113.569438,22.117041],[113.569349,22.117096],[113.569307,22.117177],[113.569319,22.117244],[113.569366,22.117304],[113.569358,22.118829]]}},{"type":"Feature","properties":{"routeCode":"25","routeName":"黑沙海灘 ⇀  關閘"},"geometry":{"type":"LineString","coordinates":[[113.569358,22.118829],[113.569375,22.119237],[113.569558,22.119253],[113.569515,22.11734],[113.56959,22.117286],[113.569617,22.117204],[113.569611,22.116813],[113.569582,22.116746],[113.569608,22.116481],[113.569551,22.116171],[113.569463,22.116025],[113.569324,22.115869],[113.569104,22.115775],[113.568437,22.115616],[113.568026,22.115541],[113.56785,22.115422],[113.567804,22.11524],[113.567728,22.115017],[113.567637,22.11489],[113.567369,22.114731],[113.567803,22.114169],[113.567852,22.113881],[113.567508,22.11325],[113.567165,22.113071],[113.566673,22.113174],[113.565776,22.113424],[113.565534,22.113419],[113.563987,22.113154],[113.563374,22.112812],[113.563085,22.112662],[113.56275,22.112634],[113.562487,22.112842],[113.562428,22.11317],[113.562677,22.113661],[113.562852,22.11415],[113.561844,22.114806],[113.5602,22.114158],[113.559666,22.113951],[113.55914,22.113921],[113.558314,22.114219],[113.55796,22.114574],[113.557279,22.115382],[113.556769,22.116316],[113.555492,22.117797],[113.555007,22.118066],[113.554409,22.118324],[113.554001,22.118334],[113.552068,22.117853],[113.551835,22.117846],[113.551612,22.117854],[113.551555,22.117887],[113.551541,22.117984],[113.55155,22.118044],[113.55163,22.118081],[113.551855,22.118108],[113.551921,22.118163],[113.552394,22.118379],[113.5527,22.118795],[113.553552,22.119605],[113.553634,22.119753],[113.553636,22.119976],[113.553447,22.120534],[113.552982,22.122056],[113.552912,22.122603],[113.552853,22.123015],[113.55288,22.123656],[113.55318,22.124173],[113.553754,22.124561],[113.554397,22.124861],[113.554714,22.125023],[113.555744,22.125868],[113.55715,22.12633],[113.557573,22.126514],[113.558035,22.126926],[113.558309,22.12736],[113.558648,22.128227],[113.558748,22.12873],[113.558705,22.129123],[113.559794,22.130012],[113.559896,22.13032],[113.560229,22.130469],[113.561216,22.130499],[113.561212,22.129603],[113.56121,22.128854],[113.56296,22.128874],[113.562958,22.129705],[113.562938,22.131265],[113.562809,22.131302],[113.562707,22.131411],[113.562715,22.131568],[113.562815,22.131667],[113.562871,22.131826],[113.563169,22.138012],[113.563078,22.138286],[113.562874,22.138435],[113.562723,22.138624],[113.561881,22.138758],[113.560739,22.138966],[113.559907,22.138986],[113.55946,22.139176],[113.559896,22.139222],[113.560771,22.139165],[113.561018,22.139344],[113.562783,22.139175],[113.562986,22.139364],[113.563212,22.139473],[113.563276,22.139732],[113.56327,22.140129],[113.563538,22.146645],[113.563769,22.150248],[113.563686,22.150544],[113.563493,22.150707],[113.56323,22.150747],[113.562621,22.15064],[113.562187,22.15048],[113.560582,22.150037],[113.559693,22.149888],[113.558062,22.149788],[113.556081,22.150206],[113.555269,22.150429],[113.552313,22.151671],[113.551292,22.152074],[113.551104,22.152074],[113.550895,22.151969],[113.550712,22.152094],[113.550707,22.152362],[113.55083,22.152571],[113.550951,22.15264],[113.551189,22.152873],[113.552551,22.155615],[113.552716,22.155803],[113.55268,22.155839],[113.552982,22.156084],[113.552982,22.156317],[113.553099,22.156508],[113.553389,22.156575],[113.553684,22.156471],[113.553792,22.156198],[113.55406,22.155949],[113.555084,22.155558],[113.555567,22.155293],[113.555927,22.155293],[113.55679,22.155853],[113.557337,22.156217],[113.557777,22.156396],[113.559279,22.156712],[113.559377,22.156772],[113.559564,22.156789],[113.559805,22.157],[113.559816,22.157154],[113.559714,22.15736],[113.559405,22.157685],[113.558309,22.158837],[113.557733,22.159472],[113.557536,22.159417],[113.557327,22.159529],[113.55726,22.159715],[113.557316,22.159874],[113.556368,22.160903],[113.555584,22.161742],[113.555009,22.162279],[113.554907,22.162269],[113.554639,22.162411],[113.554489,22.162527],[113.554186,22.162626],[113.553805,22.162669],[113.553164,22.162602],[113.552805,22.162646],[113.552496,22.162716],[113.552029,22.162886],[113.550881,22.163438],[113.549907,22.163864],[113.549559,22.163955],[113.548627,22.164073],[113.548387,22.164087],[113.548282,22.164114],[113.548231,22.164306],[113.548254,22.164438],[113.548359,22.164509],[113.548509,22.164656],[113.54864,22.164827],[113.548698,22.164977],[113.548719,22.165163],[113.543792,22.187191],[113.543578,22.18746],[113.543251,22.187812],[113.542923,22.188076],[113.542848,22.188429],[113.542972,22.188776],[113.543326,22.188985],[113.543449,22.188994],[113.543367,22.189429],[113.543444,22.188977],[113.543916,22.188868],[113.544951,22.18927],[113.546647,22.189944],[113.546218,22.190947],[113.546131,22.191097],[113.546135,22.191211],[113.546239,22.191294],[113.546454,22.191394],[113.546548,22.191405],[113.546623,22.191277],[113.547744,22.191745],[113.548969,22.192184],[113.548682,22.19279],[113.548631,22.192953],[113.548526,22.193015],[113.547674,22.19255],[113.546628,22.191892],[113.544548,22.190626],[113.544139,22.190792],[113.544014,22.191202],[113.543987,22.191863],[113.543924,22.192047],[113.543656,22.192452],[113.54343,22.192588],[113.543503,22.192891],[113.543506,22.193267],[113.543363,22.193495],[113.54336,22.193666],[113.543446,22.193837],[113.546367,22.197691],[113.54664,22.197795],[113.547075,22.197706],[113.547423,22.197989],[113.547603,22.198356],[113.547321,22.198749],[113.547313,22.198925],[113.548287,22.200179],[113.548993,22.201077],[113.54851,22.201497],[113.546144,22.20363],[113.544232,22.205325],[113.544833,22.205812],[113.545709,22.207213],[113.545791,22.207404],[113.545345,22.207751],[113.544766,22.20943],[113.54442,22.210614],[113.546281,22.210435],[113.547396,22.210281],[113.547594,22.212546],[113.547748,22.214577],[113.547893,22.214667],[113.548907,22.214503]]}}]}
