{"type":"FeatureCollection","features":[{"type":"Feature","properties":{"stopCode":"M1","stopName":"關閘總站","marker-size":"small","marker-color":"#FFC853"},"geometry":{"type":"Point","coordinates":[113.548907,22.214503]}},{"type":"Feature","properties":{"stopCode":"M5","stopName":"街總社區服務大樓","marker-size":"small","marker-color":"#FFC853"},"geometry":{"type":"Point","coordinates":[113.54405,22.213356]}},{"type":"Feature","properties":{"stopCode":"M31","stopName":"白朗古/跑狗場","marker-size":"small","marker-color":"#FFC853"},"geometry":{"type":"Point","coordinates":[113.544938,22.209492]}},{"type":"Feature","properties":{"stopCode":"M271","stopName":"市政狗房","marker-size":"small","marker-color":"#FFC853"},"geometry":{"type":"Point","coordinates":[113.546565,22.206847]}},{"type":"Feature","properties":{"stopCode":"M105","stopName":"望廈炮台","marker-size":"small","marker-color":"#FFC853"},"geometry":{"type":"Point","coordinates":[113.547939,22.205698]}},{"type":"Feature","properties":{"stopCode":"M272","stopName":"愉景花園","marker-size":"small","marker-color":"#FFC853"},"geometry":{"type":"Point","coordinates":[113.549391,22.204492]}},{"type":"Feature","properties":{"stopCode":"M61","stopName":"二龍喉公園","marker-size":"small","marker-color":"#FFC853"},"geometry":{"type":"Point","coordinates":[113.550751,22.200951]}},{"type":"Feature","properties":{"stopCode":"M73","stopName":"得勝花園","marker-size":"small","marker-color":"#FFC853"},"geometry":{"type":"Point","coordinates":[113.549187,22.199665]}},{"type":"Feature","properties":{"stopCode":"M270","stopName":"塔石體育館","marker-size":"small","marker-color":"#FFC853"},"geometry":{"type":"Point","coordinates":[113.547291,22.197672]}},{"type":"Feature","properties":{"stopCode":"M153","stopName":"水坑尾/公共行政大樓","marker-size":"small","marker-color":"#FFC853"},"geometry":{"type":"Point","coordinates":[113.543678,22.194044]}},{"type":"Feature","properties":{"stopCode":"M173","stopName":"約翰四世大馬路","marker-size":"small","marker-color":"#FFC853"},"geometry":{"type":"Point","coordinates":[113.542941,22.191956]}},{"type":"Feature","properties":{"stopCode":"M172","stopName":"亞馬喇前地","marker-size":"small","marker-color":"#FFC853"},"geometry":{"type":"Point","coordinates":[113.543367,22.189429]}},{"type":"Feature","properties":{"stopCode":"T403","stopName":"史伯泰/麗景灣","marker-size":"small","marker-color":"#FFC853"},"geometry":{"type":"Point","coordinates":[113.553933,22.162727]}},{"type":"Feature","properties":{"stopCode":"T304","stopName":"氹仔大中華廣場","marker-size":"small","marker-color":"#FFC853"},"geometry":{"type":"Point","coordinates":[113.556702,22.160685]}},{"type":"Feature","properties":{"stopCode":"T309","stopName":"泉亮花園","marker-size":"small","marker-color":"#FFC853"},"geometry":{"type":"Point","coordinates":[113.558219,22.159096]}},{"type":"Feature","properties":{"stopCode":"T310","stopName":"孫逸仙馬路/三家村","marker-size":"small","marker-color":"#FFC853"},"geometry":{"type":"Point","coordinates":[113.559475,22.157756]}},{"type":"Feature","properties":{"stopCode":"T368","stopName":"奧林匹克大馬路","marker-size":"small","marker-color":"#FFC853"},"geometry":{"type":"Point","coordinates":[113.558845,22.156537]}},{"type":"Feature","properties":{"stopCode":"T324","stopName":"澳門運動場","marker-size":"small","marker-color":"#FFC853"},"geometry":{"type":"Point","coordinates":[113.554995,22.155454]}},{"type":"Feature","properties":{"stopCode":"T347","stopName":"運動場圓形地","marker-size":"small","marker-color":"#FFC853"},"geometry":{"type":"Point","coordinates":[113.552366,22.154724]}},{"type":"Feature","properties":{"stopCode":"T362","stopName":"奧林匹克游泳館","marker-size":"small","marker-color":"#FFC853"},"geometry":{"type":"Point","coordinates":[113.552932,22.151626]}},{"type":"Feature","properties":{"stopCode":"T364","stopName":"望德聖母灣馬路/軍營","marker-size":"small","marker-color":"#FFC853"},"geometry":{"type":"Point","coordinates":[113.556088,22.150356]}},{"type":"Feature","properties":{"stopCode":"T366","stopName":"望德聖母灣馬路/紅樹林","marker-size":"small","marker-color":"#FFC853"},"geometry":{"type":"Point","coordinates":[113.562275,22.150684]}},{"type":"Feature","properties":{"stopCode":"T375","stopName":"連貫公路/新濠天地","marker-size":"small","marker-color":"#FFC853"},"geometry":{"type":"Point","coordinates":[113.563999,22.149708]}},{"type":"Feature","properties":{"stopCode":"T414","stopName":"路氹新城-1","marker-size":"small","marker-color":"#FFC853"},"geometry":{"type":"Point","coordinates":[113.566955,22.14545]}},{"type":"Feature","properties":{"stopCode":"T415","stopName":"路氹新城-2","marker-size":"small","marker-color":"#FFC853"},"geometry":{"type":"Point","coordinates":[113.566771,22.141784]}},{"type":"Feature","properties":{"stopCode":"T385","stopName":"蓮花路/蓮花圓形地-1","marker-size":"small","marker-color":"#FFC853"},"geometry":{"type":"Point","coordinates":[113.56462,22.138448]}},{"type":"Feature","properties":{"stopCode":"T360","stopName":"蓮花圓形地-2","marker-size":"small","marker-color":"#FFC853"},"geometry":{"type":"Point","coordinates":[113.56327,22.140129]}},{"type":"Feature","properties":{"stopCode":"T376","stopName":"連貫公路/威尼斯人","marker-size":"small","marker-color":"#FFC853"},"geometry":{"type":"Point","coordinates":[113.563538,22.146645]}},{"type":"Feature","properties":{"stopCode":"T367","stopName":"望德聖母灣馬路/連貫公路","marker-size":"small","marker-color":"#FFC853"},"geometry":{"type":"Point","coordinates":[113.562187,22.15048]}},{"type":"Feature","properties":{"stopCode":"T365","stopName":"望德聖母灣馬路/銀河","marker-size":"small","marker-color":"#FFC853"},"geometry":{"type":"Point","coordinates":[113.556081,22.150206]}},{"type":"Feature","properties":{"stopCode":"T363","stopName":"奧林匹克游泳館圓形地","marker-size":"small","marker-color":"#FFC853"},"geometry":{"type":"Point","coordinates":[113.552313,22.151671]}},{"type":"Feature","properties":{"stopCode":"T361","stopName":"運動場道","marker-size":"small","marker-color":"#FFC853"},"geometry":{"type":"Point","coordinates":[113.55268,22.155839]}},{"type":"Feature","properties":{"stopCode":"T325","stopName":"華寶花園","marker-size":"small","marker-color":"#FFC853"},"geometry":{"type":"Point","coordinates":[113.555084,22.155558]}},{"type":"Feature","properties":{"stopCode":"T339","stopName":"花城公園","marker-size":"small","marker-color":"#FFC853"},"geometry":{"type":"Point","coordinates":[113.55679,22.155853]}},{"type":"Feature","properties":{"stopCode":"T311","stopName":"亞利雅架前地","marker-size":"small","marker-color":"#FFC853"},"geometry":{"type":"Point","coordinates":[113.559405,22.157685]}},{"type":"Feature","properties":{"stopCode":"T312","stopName":"寶龍花園","marker-size":"small","marker-color":"#FFC853"},"geometry":{"type":"Point","coordinates":[113.558309,22.158837]}},{"type":"Feature","properties":{"stopCode":"T308","stopName":"氹仔電訊","marker-size":"small","marker-color":"#FFC853"},"geometry":{"type":"Point","coordinates":[113.556368,22.160903]}},{"type":"Feature","properties":{"stopCode":"T300","stopName":"史伯泰/盧廉若","marker-size":"small","marker-color":"#FFC853"},"geometry":{"type":"Point","coordinates":[113.552805,22.162646]}},{"type":"Feature","properties":{"stopCode":"T330","stopName":"蘇利安圓形地","marker-size":"small","marker-color":"#FFC853"},"geometry":{"type":"Point","coordinates":[113.548627,22.164073]}},{"type":"Feature","properties":{"stopCode":"M172","stopName":"亞馬喇前地","marker-size":"small","marker-color":"#FFC853"},"geometry":{"type":"Point","coordinates":[113.543367,22.189429]}},{"type":"Feature","properties":{"stopCode":"M69","stopName":"葡京酒店","marker-size":"small","marker-color":"#FFC853"},"geometry":{"type":"Point","coordinates":[113.544951,22.18927]}},{"type":"Feature","properties":{"stopCode":"M160","stopName":"十月一日前地","marker-size":"small","marker-color":"#FFC853"},"geometry":{"type":"Point","coordinates":[113.546218,22.190947]}},{"type":"Feature","properties":{"stopCode":"M158","stopName":"北京街/假日酒店","marker-size":"small","marker-color":"#FFC853"},"geometry":{"type":"Point","coordinates":[113.547744,22.191745]}},{"type":"Feature","properties":{"stopCode":"M243","stopName":"何賢公園","marker-size":"small","marker-color":"#FFC853"},"geometry":{"type":"Point","coordinates":[113.548682,22.19279]}},{"type":"Feature","properties":{"stopCode":"M157","stopName":"治安警察局","marker-size":"small","marker-color":"#FFC853"},"geometry":{"type":"Point","coordinates":[113.546628,22.191892]}},{"type":"Feature","properties":{"stopCode":"M169","stopName":"教育暨青年局","marker-size":"small","marker-color":"#FFC853"},"geometry":{"type":"Point","coordinates":[113.543987,22.191863]}},{"type":"Feature","properties":{"stopCode":"M144","stopName":"水坑尾街","marker-size":"small","marker-color":"#FFC853"},"geometry":{"type":"Point","coordinates":[113.543446,22.193837]}},{"type":"Feature","properties":{"stopCode":"M76","stopName":"盧廉若公園","marker-size":"small","marker-color":"#FFC853"},"geometry":{"type":"Point","coordinates":[113.548287,22.200179]}},{"type":"Feature","properties":{"stopCode":"M84","stopName":"高士德/培正","marker-size":"small","marker-color":"#FFC853"},"geometry":{"type":"Point","coordinates":[113.54851,22.201497]}},{"type":"Feature","properties":{"stopCode":"M91","stopName":"高士德/亞利鴉架街","marker-size":"small","marker-color":"#FFC853"},"geometry":{"type":"Point","coordinates":[113.546144,22.20363]}},{"type":"Feature","properties":{"stopCode":"M17","stopName":"提督馬路/白朗古","marker-size":"small","marker-color":"#FFC853"},"geometry":{"type":"Point","coordinates":[113.545709,22.207213]}},{"type":"Feature","properties":{"stopCode":"M19","stopName":"白朗古將軍馬路","marker-size":"small","marker-color":"#FFC853"},"geometry":{"type":"Point","coordinates":[113.544766,22.20943]}},{"type":"Feature","properties":{"stopCode":"M4","stopName":"菜園涌邊街總站","marker-size":"small","marker-color":"#FFC853"},"geometry":{"type":"Point","coordinates":[113.544863,22.213657]}},{"type":"Feature","properties":{"stopCode":"M1","stopName":"關閘總站","marker-size":"small","marker-color":"#FFC853"},"geometry":{"type":"Point","coordinates":[113.548907,22.214503]}},{"type":"Feature","properties":{"routeCode":"25X","routeName":"關閘 ↻ 蓮花圓形地"},"geometry":{"type":"LineString","coordinates":[[113.548907,22.214503],[113.549809,22.214367],[113.5502,22.214488],[113.550737,22.214779],[113.550798,22.214886],[113.550801,22.215067],[113.550726,22.215194],[113.549012,22.21584],[113.548444,22.215956],[113.548009,22.215971],[113.547668,22.215934],[113.546885,22.215787],[113.546367,22.215673],[113.544189,22.215084],[113.544187,22.21499],[113.54423,22.214814],[113.544197,22.214434],[113.544085,22.214168],[113.544047,22.213754],[113.54405,22.213356],[113.544002,22.212542],[113.54453,22.21056],[113.544938,22.209492],[113.545198,22.208519],[113.545455,22.207741],[113.545804,22.207466],[113.546565,22.206847],[113.547939,22.205698],[113.549391,22.204492],[113.550353,22.203749],[113.550777,22.203351],[113.552433,22.202001],[113.552467,22.201876],[113.552422,22.201742],[113.551666,22.201448],[113.551171,22.201283],[113.551042,22.201217],[113.550751,22.200951],[113.549187,22.199665],[113.548342,22.198909],[113.547291,22.197672],[113.54584,22.195926],[113.544847,22.195688],[113.543678,22.194044],[113.543456,22.193699],[113.543457,22.193541],[113.543628,22.193211],[113.54358,22.192541],[113.542941,22.191956],[113.542103,22.191185],[113.543446,22.189894],[113.5432,22.189662],[113.543344,22.189504],[113.543367,22.189429],[113.543444,22.18898],[113.543884,22.18886],[113.544168,22.188433],[113.544028,22.187966],[113.543878,22.187609],[113.543798,22.187196],[113.548754,22.165061],[113.548862,22.164783],[113.549247,22.164437],[113.549677,22.164142],[113.550688,22.163712],[113.55071,22.163665],[113.551976,22.163044],[113.552328,22.162889],[113.552912,22.162738],[113.553266,22.162716],[113.553611,22.162749],[113.553933,22.162727],[113.55439,22.162656],[113.554555,22.162662],[113.554637,22.162718],[113.554772,22.162717],[113.554887,22.162684],[113.555002,22.162604],[113.555058,22.162522],[113.555088,22.162368],[113.556702,22.160685],[113.556943,22.160401],[113.557429,22.159954],[113.557617,22.159995],[113.557807,22.159884],[113.557871,22.159745],[113.557823,22.159542],[113.558219,22.159096],[113.559475,22.157756],[113.559883,22.15735],[113.560006,22.157283],[113.56017,22.157219],[113.560224,22.157077],[113.560226,22.15695],[113.560154,22.156801],[113.560068,22.156739],[113.559907,22.156766],[113.559848,22.156814],[113.559658,22.156779],[113.559448,22.156667],[113.558845,22.156537],[113.557692,22.156272],[113.557321,22.156073],[113.55597,22.155204],[113.555578,22.155174],[113.554995,22.155454],[113.553877,22.155885],[113.553658,22.155934],[113.553443,22.15582],[113.553191,22.155842],[113.552834,22.155723],[113.552366,22.154724],[113.552249,22.154615],[113.552137,22.154593],[113.551144,22.152595],[113.551217,22.152411],[113.551408,22.15222],[113.552932,22.151626],[113.556088,22.150356],[113.557581,22.150103],[113.559532,22.150042],[113.560328,22.150142],[113.562275,22.150684],[113.563399,22.151001],[113.563507,22.151299],[113.563877,22.151468],[113.564215,22.151369],[113.564419,22.151055],[113.564402,22.150722],[113.564102,22.150474],[113.564016,22.150275],[113.563999,22.149708],[113.563929,22.148232],[113.564209,22.14795],[113.567058,22.147851],[113.566955,22.14545],[113.566771,22.141784],[113.566551,22.138776],[113.566913,22.138643],[113.570834,22.138365],[113.570872,22.138261],[113.570797,22.138166],[113.566892,22.13847],[113.566135,22.138365],[113.56462,22.138448],[113.56408,22.138519],[113.563855,22.138499],[113.563619,22.138271],[113.563308,22.138221],[113.562895,22.138385],[113.562664,22.138683],[113.562734,22.13913],[113.563206,22.139473],[113.563271,22.139752],[113.56327,22.140129],[113.563538,22.146645],[113.563769,22.150248],[113.563686,22.150544],[113.563493,22.150707],[113.56323,22.150747],[113.562621,22.15064],[113.562187,22.15048],[113.560582,22.150037],[113.559693,22.149888],[113.558062,22.149788],[113.556081,22.150206],[113.555269,22.150429],[113.552313,22.151671],[113.551292,22.152074],[113.551104,22.152074],[113.550895,22.151969],[113.550712,22.152094],[113.550707,22.152362],[113.55083,22.152571],[113.550951,22.15264],[113.551189,22.152873],[113.552551,22.155615],[113.552716,22.155803],[113.55268,22.155839],[113.552982,22.156084],[113.552982,22.156317],[113.553099,22.156508],[113.553389,22.156575],[113.553684,22.156471],[113.553792,22.156198],[113.55406,22.155949],[113.555084,22.155558],[113.555567,22.155293],[113.555927,22.155293],[113.55679,22.155853],[113.557345,22.156229],[113.557782,22.156406],[113.559335,22.156721],[113.559556,22.156799],[113.559792,22.156995],[113.559821,22.157154],[113.559725,22.15736],[113.559405,22.157685],[113.558309,22.158837],[113.557733,22.159472],[113.557536,22.159417],[113.557327,22.159529],[113.55726,22.159715],[113.557316,22.159874],[113.556368,22.160903],[113.555584,22.161742],[113.555009,22.162279],[113.554907,22.162269],[113.554639,22.162411],[113.554489,22.162527],[113.554186,22.162626],[113.553805,22.162669],[113.553164,22.162602],[113.552805,22.162646],[113.552496,22.162716],[113.552029,22.162886],[113.550881,22.163438],[113.549907,22.163864],[113.549559,22.163955],[113.548627,22.164073],[113.548387,22.164087],[113.548282,22.164114],[113.548231,22.164306],[113.548254,22.164438],[113.548359,22.164509],[113.548509,22.164656],[113.54864,22.164827],[113.548698,22.164977],[113.548719,22.165163],[113.543792,22.187191],[113.543578,22.18746],[113.543251,22.187812],[113.542923,22.188076],[113.542848,22.188429],[113.542972,22.188776],[113.543326,22.188985],[113.543449,22.188994],[113.543367,22.189429],[113.543444,22.188977],[113.543916,22.188868],[113.544951,22.18927],[113.546647,22.189944],[113.546218,22.190947],[113.546131,22.191097],[113.546135,22.191211],[113.546239,22.191294],[113.546454,22.191394],[113.546548,22.191405],[113.546623,22.191277],[113.547744,22.191745],[113.548969,22.192184],[113.548682,22.19279],[113.548631,22.192953],[113.548526,22.193015],[113.547674,22.19255],[113.546628,22.191892],[113.544548,22.190626],[113.544139,22.190792],[113.544014,22.191202],[113.543987,22.191863],[113.543924,22.192047],[113.543656,22.192452],[113.54343,22.192588],[113.543503,22.192891],[113.543506,22.193267],[113.543363,22.193495],[113.54336,22.193666],[113.543446,22.193837],[113.546367,22.197691],[113.54664,22.197795],[113.547075,22.197706],[113.547423,22.197989],[113.547603,22.198356],[113.547321,22.198749],[113.547313,22.198925],[113.548287,22.200179],[113.548993,22.201077],[113.54851,22.201497],[113.546144,22.20363],[113.544232,22.205325],[113.544833,22.205812],[113.545709,22.207213],[113.545791,22.207404],[113.545345,22.207751],[113.544766,22.20943],[113.543948,22.212343],[113.543916,22.212534],[113.543945,22.213503],[113.544042,22.213679],[113.544863,22.213657],[113.547671,22.213485],[113.547749,22.214578],[113.547832,22.214642],[113.547955,22.21465],[113.548907,22.214503]]}}]}
