{"type":"FeatureCollection","features":[{"type":"Feature","properties":{"stopCode":"M239","stopName":"外港碼頭","marker-size":"small","marker-color":"#FFC853"},"geometry":{"type":"Point","coordinates":[113.559575,22.198089]}},{"type":"Feature","properties":{"stopCode":"M254","stopName":"友誼馬路/行車天橋","marker-size":"small","marker-color":"#FFC853"},"geometry":{"type":"Point","coordinates":[113.554846,22.194852]}},{"type":"Feature","properties":{"stopCode":"M241","stopName":"旅遊活動中心","marker-size":"small","marker-color":"#FFC853"},"geometry":{"type":"Point","coordinates":[113.553052,22.194683]}},{"type":"Feature","properties":{"stopCode":"M71","stopName":"廈門街/理工","marker-size":"small","marker-color":"#FFC853"},"geometry":{"type":"Point","coordinates":[113.551708,22.193188]}},{"type":"Feature","properties":{"stopCode":"M155","stopName":"東方拱門","marker-size":"small","marker-color":"#FFC853"},"geometry":{"type":"Point","coordinates":[113.549843,22.193858]}},{"type":"Feature","properties":{"stopCode":"M157","stopName":"治安警察局","marker-size":"small","marker-color":"#FFC853"},"geometry":{"type":"Point","coordinates":[113.546628,22.191892]}},{"type":"Feature","properties":{"stopCode":"M172","stopName":"亞馬喇前地","marker-size":"small","marker-color":"#FFC853"},"geometry":{"type":"Point","coordinates":[113.543367,22.189429]}},{"type":"Feature","properties":{"stopCode":"T403","stopName":"史伯泰/麗景灣","marker-size":"small","marker-color":"#FFC853"},"geometry":{"type":"Point","coordinates":[113.553933,22.162727]}},{"type":"Feature","properties":{"stopCode":"T304","stopName":"氹仔大中華廣場","marker-size":"small","marker-color":"#FFC853"},"geometry":{"type":"Point","coordinates":[113.556702,22.160685]}},{"type":"Feature","properties":{"stopCode":"T309","stopName":"泉亮花園","marker-size":"small","marker-color":"#FFC853"},"geometry":{"type":"Point","coordinates":[113.558219,22.159096]}},{"type":"Feature","properties":{"stopCode":"T310","stopName":"孫逸仙馬路/三家村","marker-size":"small","marker-color":"#FFC853"},"geometry":{"type":"Point","coordinates":[113.559475,22.157756]}},{"type":"Feature","properties":{"stopCode":"T318","stopName":"泉悅花園","marker-size":"small","marker-color":"#FFC853"},"geometry":{"type":"Point","coordinates":[113.559495,22.156261]}},{"type":"Feature","properties":{"stopCode":"T319","stopName":"嘉模泳池","marker-size":"small","marker-color":"#FFC853"},"geometry":{"type":"Point","coordinates":[113.559214,22.154966]}},{"type":"Feature","properties":{"stopCode":"T320","stopName":"氹仔官也街","marker-size":"small","marker-color":"#FFC853"},"geometry":{"type":"Point","coordinates":[113.55714,22.153048]}},{"type":"Feature","properties":{"stopCode":"T321","stopName":"氹仔中葡小學","marker-size":"small","marker-color":"#FFC853"},"geometry":{"type":"Point","coordinates":[113.555283,22.152125]}},{"type":"Feature","properties":{"stopCode":"T323","stopName":"黑橋/地堡街","marker-size":"small","marker-color":"#FFC853"},"geometry":{"type":"Point","coordinates":[113.556217,22.154494]}},{"type":"Feature","properties":{"stopCode":"T324","stopName":"澳門運動場","marker-size":"small","marker-color":"#FFC853"},"geometry":{"type":"Point","coordinates":[113.554995,22.155454]}},{"type":"Feature","properties":{"stopCode":"T332","stopName":"南新花園","marker-size":"small","marker-color":"#FFC853"},"geometry":{"type":"Point","coordinates":[113.54956,22.157426]}},{"type":"Feature","properties":{"stopCode":"T325","stopName":"華寶花園","marker-size":"small","marker-color":"#FFC853"},"geometry":{"type":"Point","coordinates":[113.555084,22.155558]}},{"type":"Feature","properties":{"stopCode":"T339","stopName":"花城公園","marker-size":"small","marker-color":"#FFC853"},"geometry":{"type":"Point","coordinates":[113.55679,22.155853]}},{"type":"Feature","properties":{"stopCode":"T317","stopName":"氹仔花城","marker-size":"small","marker-color":"#FFC853"},"geometry":{"type":"Point","coordinates":[113.559377,22.156772]}},{"type":"Feature","properties":{"stopCode":"T311","stopName":"亞利雅架前地","marker-size":"small","marker-color":"#FFC853"},"geometry":{"type":"Point","coordinates":[113.559405,22.157685]}},{"type":"Feature","properties":{"stopCode":"T312","stopName":"寶龍花園","marker-size":"small","marker-color":"#FFC853"},"geometry":{"type":"Point","coordinates":[113.558309,22.158837]}},{"type":"Feature","properties":{"stopCode":"T308","stopName":"氹仔電訊","marker-size":"small","marker-color":"#FFC853"},"geometry":{"type":"Point","coordinates":[113.556368,22.160903]}},{"type":"Feature","properties":{"stopCode":"T300","stopName":"史伯泰/盧廉若","marker-size":"small","marker-color":"#FFC853"},"geometry":{"type":"Point","coordinates":[113.552805,22.162646]}},{"type":"Feature","properties":{"stopCode":"T330","stopName":"蘇利安圓形地","marker-size":"small","marker-color":"#FFC853"},"geometry":{"type":"Point","coordinates":[113.548627,22.164073]}},{"type":"Feature","properties":{"stopCode":"M172","stopName":"亞馬喇前地","marker-size":"small","marker-color":"#FFC853"},"geometry":{"type":"Point","coordinates":[113.543367,22.189429]}},{"type":"Feature","properties":{"stopCode":"M69","stopName":"葡京酒店","marker-size":"small","marker-color":"#FFC853"},"geometry":{"type":"Point","coordinates":[113.544951,22.18927]}},{"type":"Feature","properties":{"stopCode":"M160","stopName":"十月一日前地","marker-size":"small","marker-color":"#FFC853"},"geometry":{"type":"Point","coordinates":[113.546218,22.190947]}},{"type":"Feature","properties":{"stopCode":"M158","stopName":"北京街/假日酒店","marker-size":"small","marker-color":"#FFC853"},"geometry":{"type":"Point","coordinates":[113.547744,22.191745]}},{"type":"Feature","properties":{"stopCode":"M161","stopName":"高美士/何賢公園","marker-size":"small","marker-color":"#FFC853"},"geometry":{"type":"Point","coordinates":[113.550116,22.192648]}},{"type":"Feature","properties":{"stopCode":"M70","stopName":"理工學院","marker-size":"small","marker-color":"#FFC853"},"geometry":{"type":"Point","coordinates":[113.552025,22.193444]}},{"type":"Feature","properties":{"stopCode":"M118","stopName":"高美士/馬六甲街停車場","marker-size":"small","marker-color":"#FFC853"},"geometry":{"type":"Point","coordinates":[113.553821,22.195763]}},{"type":"Feature","properties":{"stopCode":"M239","stopName":"外港碼頭","marker-size":"small","marker-color":"#FFC853"},"geometry":{"type":"Point","coordinates":[113.559575,22.198089]}},{"type":"Feature","properties":{"routeCode":"28A","routeName":"外港碼頭 ↻ 氹仔"},"geometry":{"type":"LineString","coordinates":[[113.559575,22.198089],[113.557367,22.197435],[113.556713,22.197355],[113.554846,22.194852],[113.554238,22.194099],[113.554248,22.193772],[113.5545,22.193635],[113.554755,22.193916],[113.554487,22.194273],[113.553267,22.195083],[113.553052,22.194683],[113.552132,22.193526],[113.551708,22.193188],[113.550658,22.192855],[113.550133,22.194077],[113.549843,22.193858],[113.546628,22.191892],[113.545772,22.191341],[113.545673,22.191329],[113.544796,22.190738],[113.544487,22.190614],[113.544058,22.190365],[113.544026,22.190311],[113.543328,22.189797],[113.543202,22.189655],[113.543347,22.189503],[113.543367,22.189429],[113.543444,22.18898],[113.543884,22.18886],[113.544168,22.188433],[113.544028,22.187966],[113.543878,22.187609],[113.543798,22.187196],[113.548754,22.165061],[113.548862,22.164783],[113.549247,22.164437],[113.549677,22.164142],[113.550688,22.163712],[113.55071,22.163665],[113.551976,22.163044],[113.552328,22.162889],[113.552912,22.162738],[113.553266,22.162716],[113.553611,22.162749],[113.553933,22.162727],[113.55439,22.162656],[113.554555,22.162662],[113.554637,22.162718],[113.554772,22.162717],[113.554887,22.162684],[113.555002,22.162604],[113.555058,22.162522],[113.555088,22.162368],[113.556702,22.160685],[113.556951,22.160401],[113.557423,22.159959],[113.557617,22.15998],[113.557801,22.159887],[113.557871,22.159732],[113.557818,22.159557],[113.558219,22.159096],[113.559475,22.157756],[113.559886,22.157345],[113.56003,22.15728],[113.560191,22.157198],[113.560234,22.157045],[113.560218,22.156913],[113.560159,22.156816],[113.560071,22.156754],[113.559918,22.156769],[113.559853,22.156814],[113.559636,22.156776],[113.559456,22.156672],[113.559495,22.156261],[113.559461,22.155843],[113.559214,22.154966],[113.55907,22.154553],[113.558046,22.153507],[113.557509,22.153251],[113.557259,22.153095],[113.55714,22.153048],[113.556041,22.152477],[113.555283,22.152125],[113.555024,22.152046],[113.555009,22.152295],[113.555059,22.152664],[113.556373,22.154241],[113.556217,22.154494],[113.555911,22.15504],[113.555648,22.155169],[113.554995,22.155454],[113.553936,22.15589],[113.553655,22.155947],[113.553483,22.155835],[113.553194,22.15586],[113.55299,22.156053],[113.552963,22.156272],[113.55281,22.156406],[113.551818,22.156854],[113.551428,22.156947],[113.551117,22.15699],[113.54861,22.157008],[113.548631,22.15742],[113.54956,22.157426],[113.550004,22.157392],[113.550651,22.157397],[113.550975,22.157338],[113.552813,22.156516],[113.553073,22.15648],[113.553277,22.156585],[113.553505,22.156583],[113.5537,22.156448],[113.553775,22.156264],[113.553768,22.156183],[113.55399,22.155996],[113.555084,22.155558],[113.555567,22.155293],[113.555927,22.155293],[113.55679,22.155853],[113.557337,22.156217],[113.557777,22.156396],[113.559279,22.156712],[113.559377,22.156772],[113.559564,22.156789],[113.559805,22.157],[113.559816,22.157154],[113.559714,22.15736],[113.559405,22.157685],[113.558309,22.158837],[113.557733,22.159472],[113.557536,22.159417],[113.557327,22.159529],[113.55726,22.159715],[113.557316,22.159874],[113.556368,22.160903],[113.555584,22.161742],[113.555009,22.162279],[113.554907,22.162269],[113.554639,22.162411],[113.554489,22.162527],[113.554186,22.162626],[113.553805,22.162669],[113.553164,22.162602],[113.552805,22.162646],[113.552496,22.162716],[113.552029,22.162886],[113.550881,22.163438],[113.549907,22.163864],[113.549559,22.163955],[113.548627,22.164073],[113.548387,22.164087],[113.548282,22.164114],[113.548231,22.164306],[113.548254,22.164438],[113.548359,22.164509],[113.548509,22.164656],[113.54864,22.164827],[113.548698,22.164977],[113.548719,22.165163],[113.543792,22.187191],[113.543578,22.18746],[113.543251,22.187812],[113.542923,22.188076],[113.542848,22.188429],[113.542972,22.188776],[113.543326,22.188985],[113.543449,22.188994],[113.543367,22.189429],[113.543444,22.188977],[113.543916,22.188868],[113.544951,22.18927],[113.546647,22.189944],[113.546218,22.190947],[113.546131,22.191097],[113.546135,22.191211],[113.546239,22.191294],[113.546454,22.191394],[113.546548,22.191405],[113.546623,22.191277],[113.547744,22.191745],[113.550116,22.192648],[113.551768,22.19327],[113.552025,22.193444],[113.552185,22.193637],[113.553821,22.195763],[113.553932,22.195988],[113.552971,22.196564],[113.552885,22.196703],[113.553658,22.197607],[113.554507,22.198313],[113.554816,22.198275],[113.556238,22.197414],[113.557257,22.197523],[113.560068,22.198342],[113.560191,22.1988],[113.560384,22.198735],[113.560106,22.198233],[113.559575,22.198089]]}}]}
