{"type":"FeatureCollection","features":[{"type":"Feature","properties":{"stopCode":"M1","stopName":"關閘總站","marker-size":"small","marker-color":"#FFC853"},"geometry":{"type":"Point","coordinates":[113.548907,22.214503]}},{"type":"Feature","properties":{"stopCode":"M225","stopName":"看台街/騎士馬路","marker-size":"small","marker-color":"#FFC853"},"geometry":{"type":"Point","coordinates":[113.549406,22.213254]}},{"type":"Feature","properties":{"stopCode":"M7","stopName":"關閘馬路","marker-size":"small","marker-color":"#FFC853"},"geometry":{"type":"Point","coordinates":[113.548544,22.212353]}},{"type":"Feature","properties":{"stopCode":"M229","stopName":"三角花園","marker-size":"small","marker-color":"#FFC853"},"geometry":{"type":"Point","coordinates":[113.54823,22.210429]}},{"type":"Feature","properties":{"stopCode":"M16","stopName":"提督馬路/雅廉訪","marker-size":"small","marker-color":"#FFC853"},"geometry":{"type":"Point","coordinates":[113.545304,22.206338]}},{"type":"Feature","properties":{"stopCode":"M111","stopName":"昌明花園","marker-size":"small","marker-color":"#FFC853"},"geometry":{"type":"Point","coordinates":[113.542846,22.204137]}},{"type":"Feature","properties":{"stopCode":"M115","stopName":"土地廟前地","marker-size":"small","marker-color":"#FFC853"},"geometry":{"type":"Point","coordinates":[113.539981,22.202928]}},{"type":"Feature","properties":{"stopCode":"M127","stopName":"海邊新街","marker-size":"small","marker-color":"#FFC853"},"geometry":{"type":"Point","coordinates":[113.537479,22.200661]}},{"type":"Feature","properties":{"stopCode":"M125","stopName":"栢港停車場","marker-size":"small","marker-color":"#FFC853"},"geometry":{"type":"Point","coordinates":[113.536755,22.197712]}},{"type":"Feature","properties":{"stopCode":"M135","stopName":"新馬路/營地大街","marker-size":"small","marker-color":"#FFC853"},"geometry":{"type":"Point","coordinates":[113.538563,22.194561]}},{"type":"Feature","properties":{"stopCode":"M170","stopName":"殷皇子馬路","marker-size":"small","marker-color":"#FFC853"},"geometry":{"type":"Point","coordinates":[113.541707,22.191582]}},{"type":"Feature","properties":{"stopCode":"M172","stopName":"亞馬喇前地","marker-size":"small","marker-color":"#FFC853"},"geometry":{"type":"Point","coordinates":[113.543367,22.189429]}},{"type":"Feature","properties":{"stopCode":"M69","stopName":"葡京酒店","marker-size":"small","marker-color":"#FFC853"},"geometry":{"type":"Point","coordinates":[113.544951,22.18927]}},{"type":"Feature","properties":{"stopCode":"M160","stopName":"十月一日前地","marker-size":"small","marker-color":"#FFC853"},"geometry":{"type":"Point","coordinates":[113.546218,22.190947]}},{"type":"Feature","properties":{"stopCode":"M158","stopName":"北京街/假日酒店","marker-size":"small","marker-color":"#FFC853"},"geometry":{"type":"Point","coordinates":[113.547744,22.191745]}},{"type":"Feature","properties":{"stopCode":"M161","stopName":"高美士/何賢公園","marker-size":"small","marker-color":"#FFC853"},"geometry":{"type":"Point","coordinates":[113.550116,22.192648]}},{"type":"Feature","properties":{"stopCode":"M70","stopName":"理工學院","marker-size":"small","marker-color":"#FFC853"},"geometry":{"type":"Point","coordinates":[113.552025,22.193444]}},{"type":"Feature","properties":{"stopCode":"M118","stopName":"高美士/馬六甲街停車場","marker-size":"small","marker-color":"#FFC853"},"geometry":{"type":"Point","coordinates":[113.553821,22.195763]}},{"type":"Feature","properties":{"stopCode":"M239","stopName":"外港碼頭","marker-size":"small","marker-color":"#FFC853"},"geometry":{"type":"Point","coordinates":[113.559575,22.198089]}},{"type":"Feature","properties":{"stopCode":"M239","stopName":"外港碼頭","marker-size":"small","marker-color":"#7F642A"},"geometry":{"type":"Point","coordinates":[113.559575,22.198089]}},{"type":"Feature","properties":{"stopCode":"M254","stopName":"友誼馬路/行車天橋","marker-size":"small","marker-color":"#7F642A"},"geometry":{"type":"Point","coordinates":[113.554846,22.194852]}},{"type":"Feature","properties":{"stopCode":"M241","stopName":"旅遊活動中心","marker-size":"small","marker-color":"#7F642A"},"geometry":{"type":"Point","coordinates":[113.553052,22.194683]}},{"type":"Feature","properties":{"stopCode":"M71","stopName":"廈門街/理工","marker-size":"small","marker-color":"#7F642A"},"geometry":{"type":"Point","coordinates":[113.551708,22.193188]}},{"type":"Feature","properties":{"stopCode":"M155","stopName":"東方拱門","marker-size":"small","marker-color":"#7F642A"},"geometry":{"type":"Point","coordinates":[113.549843,22.193858]}},{"type":"Feature","properties":{"stopCode":"M157","stopName":"治安警察局","marker-size":"small","marker-color":"#7F642A"},"geometry":{"type":"Point","coordinates":[113.546628,22.191892]}},{"type":"Feature","properties":{"stopCode":"M173","stopName":"約翰四世大馬路","marker-size":"small","marker-color":"#7F642A"},"geometry":{"type":"Point","coordinates":[113.542941,22.191956]}},{"type":"Feature","properties":{"stopCode":"M134","stopName":"新馬路","marker-size":"small","marker-color":"#7F642A"},"geometry":{"type":"Point","coordinates":[113.539178,22.193897]}},{"type":"Feature","properties":{"stopCode":"M132","stopName":"內港/停車場","marker-size":"small","marker-color":"#7F642A"},"geometry":{"type":"Point","coordinates":[113.536681,22.197817]}},{"type":"Feature","properties":{"stopCode":"M129","stopName":"水上街市","marker-size":"small","marker-color":"#7F642A"},"geometry":{"type":"Point","coordinates":[113.537586,22.20135]}},{"type":"Feature","properties":{"stopCode":"M114","stopName":"沙梨頭海邊街","marker-size":"small","marker-color":"#7F642A"},"geometry":{"type":"Point","coordinates":[113.540063,22.203049]}},{"type":"Feature","properties":{"stopCode":"M113","stopName":"提督/紅街市","marker-size":"small","marker-color":"#7F642A"},"geometry":{"type":"Point","coordinates":[113.543385,22.204657]}},{"type":"Feature","properties":{"stopCode":"M17","stopName":"提督馬路/白朗古","marker-size":"small","marker-color":"#7F642A"},"geometry":{"type":"Point","coordinates":[113.545709,22.207213]}},{"type":"Feature","properties":{"stopCode":"M19","stopName":"白朗古將軍馬路","marker-size":"small","marker-color":"#7F642A"},"geometry":{"type":"Point","coordinates":[113.544766,22.20943]}},{"type":"Feature","properties":{"stopCode":"M10","stopName":"台山街市","marker-size":"small","marker-color":"#7F642A"},"geometry":{"type":"Point","coordinates":[113.546281,22.210435]}},{"type":"Feature","properties":{"stopCode":"M8","stopName":"巴波沙大馬路","marker-size":"small","marker-color":"#7F642A"},"geometry":{"type":"Point","coordinates":[113.547594,22.212546]}},{"type":"Feature","properties":{"stopCode":"M1","stopName":"關閘總站","marker-size":"small","marker-color":"#7F642A"},"geometry":{"type":"Point","coordinates":[113.548907,22.214503]}},{"type":"Feature","properties":{"routeCode":"3","routeName":"關閘 ⇀  外港碼頭"},"geometry":{"type":"LineString","coordinates":[[113.548907,22.214503],[113.549996,22.21435],[113.549828,22.213199],[113.549406,22.213254],[113.548738,22.213338],[113.548544,22.212353],[113.548327,22.211252],[113.548371,22.210987],[113.54823,22.210429],[113.548182,22.210182],[113.547538,22.210244],[113.545304,22.206338],[113.544815,22.205669],[113.542846,22.204137],[113.542132,22.203564],[113.541716,22.203334],[113.539981,22.202928],[113.538166,22.202504],[113.537844,22.202085],[113.537648,22.20151],[113.537479,22.200661],[113.537012,22.199147],[113.536755,22.197712],[113.536433,22.196463],[113.536653,22.196334],[113.538563,22.194561],[113.541707,22.191582],[113.543453,22.189896],[113.543198,22.189655],[113.543367,22.189429],[113.543444,22.188977],[113.543916,22.188868],[113.544951,22.18927],[113.546647,22.189944],[113.546218,22.190947],[113.546131,22.191097],[113.546135,22.191211],[113.546239,22.191294],[113.546454,22.191394],[113.546548,22.191405],[113.546623,22.191277],[113.547744,22.191745],[113.550116,22.192648],[113.551768,22.19327],[113.552025,22.193444],[113.552185,22.193637],[113.553821,22.195763],[113.553932,22.195988],[113.552971,22.196564],[113.552885,22.196703],[113.553658,22.197607],[113.554507,22.198313],[113.554816,22.198275],[113.556238,22.197414],[113.557257,22.197523],[113.560068,22.198342],[113.560191,22.1988],[113.560384,22.198735],[113.560106,22.198233],[113.559575,22.198089]]}},{"type":"Feature","properties":{"routeCode":"3","routeName":"外港碼頭 ⇀  關閘"},"geometry":{"type":"LineString","coordinates":[[113.559575,22.198089],[113.557367,22.197435],[113.556713,22.197355],[113.554846,22.194852],[113.554238,22.194099],[113.554248,22.193772],[113.5545,22.193635],[113.554755,22.193916],[113.554487,22.194273],[113.553267,22.195083],[113.553052,22.194683],[113.552132,22.193526],[113.551708,22.193188],[113.550658,22.192855],[113.550133,22.194077],[113.549843,22.193858],[113.546628,22.191892],[113.544491,22.190595],[113.544068,22.190863],[113.543901,22.19211],[113.543585,22.192542],[113.542941,22.191956],[113.542016,22.191115],[113.539178,22.193897],[113.536622,22.196337],[113.536391,22.196272],[113.536681,22.197817],[113.537586,22.20135],[113.537853,22.202175],[113.538218,22.202582],[113.540063,22.203049],[113.541497,22.203405],[113.542226,22.203758],[113.543385,22.204657],[113.544829,22.205822],[113.545709,22.207213],[113.545791,22.207404],[113.545345,22.207751],[113.544766,22.20943],[113.54442,22.210614],[113.546281,22.210435],[113.547396,22.210281],[113.547594,22.212546],[113.547748,22.214577],[113.547893,22.214667],[113.548907,22.214503]]}}]}
