{"type":"FeatureCollection","features":[{"type":"Feature","properties":{"stopCode":"M26","stopName":"筷子基總站","marker-size":"small","marker-color":"#FFC853"},"geometry":{"type":"Point","coordinates":[113.543306,22.20903]}},{"type":"Feature","properties":{"stopCode":"M10","stopName":"台山街市","marker-size":"small","marker-color":"#FFC853"},"geometry":{"type":"Point","coordinates":[113.546281,22.210435]}},{"type":"Feature","properties":{"stopCode":"M16","stopName":"提督馬路/雅廉訪","marker-size":"small","marker-color":"#FFC853"},"geometry":{"type":"Point","coordinates":[113.545304,22.206338]}},{"type":"Feature","properties":{"stopCode":"M111","stopName":"昌明花園","marker-size":"small","marker-color":"#FFC853"},"geometry":{"type":"Point","coordinates":[113.542846,22.204137]}},{"type":"Feature","properties":{"stopCode":"M115","stopName":"土地廟前地","marker-size":"small","marker-color":"#FFC853"},"geometry":{"type":"Point","coordinates":[113.539981,22.202928]}},{"type":"Feature","properties":{"stopCode":"M127","stopName":"海邊新街","marker-size":"small","marker-color":"#FFC853"},"geometry":{"type":"Point","coordinates":[113.537479,22.200661]}},{"type":"Feature","properties":{"stopCode":"M125","stopName":"栢港停車場","marker-size":"small","marker-color":"#FFC853"},"geometry":{"type":"Point","coordinates":[113.536755,22.197712]}},{"type":"Feature","properties":{"stopCode":"M135","stopName":"新馬路/營地大街","marker-size":"small","marker-color":"#FFC853"},"geometry":{"type":"Point","coordinates":[113.538563,22.194561]}},{"type":"Feature","properties":{"stopCode":"M170","stopName":"殷皇子馬路","marker-size":"small","marker-color":"#FFC853"},"geometry":{"type":"Point","coordinates":[113.541707,22.191582]}},{"type":"Feature","properties":{"stopCode":"M172","stopName":"亞馬喇前地","marker-size":"small","marker-color":"#FFC853"},"geometry":{"type":"Point","coordinates":[113.543367,22.189429]}},{"type":"Feature","properties":{"stopCode":"T403","stopName":"史伯泰/麗景灣","marker-size":"small","marker-color":"#FFC853"},"geometry":{"type":"Point","coordinates":[113.553933,22.162727]}},{"type":"Feature","properties":{"stopCode":"T304","stopName":"氹仔大中華廣場","marker-size":"small","marker-color":"#FFC853"},"geometry":{"type":"Point","coordinates":[113.556702,22.160685]}},{"type":"Feature","properties":{"stopCode":"T309","stopName":"泉亮花園","marker-size":"small","marker-color":"#FFC853"},"geometry":{"type":"Point","coordinates":[113.558219,22.159096]}},{"type":"Feature","properties":{"stopCode":"T310","stopName":"孫逸仙馬路/三家村","marker-size":"small","marker-color":"#FFC853"},"geometry":{"type":"Point","coordinates":[113.559475,22.157756]}},{"type":"Feature","properties":{"stopCode":"T318","stopName":"泉悅花園","marker-size":"small","marker-color":"#FFC853"},"geometry":{"type":"Point","coordinates":[113.559495,22.156261]}},{"type":"Feature","properties":{"stopCode":"T319","stopName":"嘉模泳池","marker-size":"small","marker-color":"#FFC853"},"geometry":{"type":"Point","coordinates":[113.559214,22.154966]}},{"type":"Feature","properties":{"stopCode":"T320","stopName":"氹仔官也街","marker-size":"small","marker-color":"#FFC853"},"geometry":{"type":"Point","coordinates":[113.55714,22.153048]}},{"type":"Feature","properties":{"stopCode":"T321","stopName":"氹仔中葡小學","marker-size":"small","marker-color":"#FFC853"},"geometry":{"type":"Point","coordinates":[113.555283,22.152125]}},{"type":"Feature","properties":{"stopCode":"T323","stopName":"黑橋/地堡街","marker-size":"small","marker-color":"#FFC853"},"geometry":{"type":"Point","coordinates":[113.556217,22.154494]}},{"type":"Feature","properties":{"stopCode":"T324","stopName":"澳門運動場","marker-size":"small","marker-color":"#FFC853"},"geometry":{"type":"Point","coordinates":[113.554995,22.155454]}},{"type":"Feature","properties":{"stopCode":"T332","stopName":"南新花園","marker-size":"small","marker-color":"#FFC853"},"geometry":{"type":"Point","coordinates":[113.54956,22.157426]}},{"type":"Feature","properties":{"stopCode":"T325","stopName":"華寶花園","marker-size":"small","marker-color":"#FFC853"},"geometry":{"type":"Point","coordinates":[113.555084,22.155558]}},{"type":"Feature","properties":{"stopCode":"T339","stopName":"花城公園","marker-size":"small","marker-color":"#FFC853"},"geometry":{"type":"Point","coordinates":[113.55679,22.155853]}},{"type":"Feature","properties":{"stopCode":"T317","stopName":"氹仔花城","marker-size":"small","marker-color":"#FFC853"},"geometry":{"type":"Point","coordinates":[113.559377,22.156772]}},{"type":"Feature","properties":{"stopCode":"T311","stopName":"亞利雅架前地","marker-size":"small","marker-color":"#FFC853"},"geometry":{"type":"Point","coordinates":[113.559405,22.157685]}},{"type":"Feature","properties":{"stopCode":"T312","stopName":"寶龍花園","marker-size":"small","marker-color":"#FFC853"},"geometry":{"type":"Point","coordinates":[113.558309,22.158837]}},{"type":"Feature","properties":{"stopCode":"T308","stopName":"氹仔電訊","marker-size":"small","marker-color":"#FFC853"},"geometry":{"type":"Point","coordinates":[113.556368,22.160903]}},{"type":"Feature","properties":{"stopCode":"T300","stopName":"史伯泰/盧廉若","marker-size":"small","marker-color":"#FFC853"},"geometry":{"type":"Point","coordinates":[113.552805,22.162646]}},{"type":"Feature","properties":{"stopCode":"T330","stopName":"蘇利安圓形地","marker-size":"small","marker-color":"#FFC853"},"geometry":{"type":"Point","coordinates":[113.548627,22.164073]}},{"type":"Feature","properties":{"stopCode":"M172","stopName":"亞馬喇前地","marker-size":"small","marker-color":"#FFC853"},"geometry":{"type":"Point","coordinates":[113.543367,22.189429]}},{"type":"Feature","properties":{"stopCode":"M171","stopName":"中區/殷皇子馬路","marker-size":"small","marker-color":"#FFC853"},"geometry":{"type":"Point","coordinates":[113.541545,22.191589]}},{"type":"Feature","properties":{"stopCode":"M134","stopName":"新馬路","marker-size":"small","marker-color":"#FFC853"},"geometry":{"type":"Point","coordinates":[113.539178,22.193897]}},{"type":"Feature","properties":{"stopCode":"M132","stopName":"內港/停車場","marker-size":"small","marker-color":"#FFC853"},"geometry":{"type":"Point","coordinates":[113.536681,22.197817]}},{"type":"Feature","properties":{"stopCode":"M129","stopName":"水上街市","marker-size":"small","marker-color":"#FFC853"},"geometry":{"type":"Point","coordinates":[113.537586,22.20135]}},{"type":"Feature","properties":{"stopCode":"M114","stopName":"沙梨頭海邊街","marker-size":"small","marker-color":"#FFC853"},"geometry":{"type":"Point","coordinates":[113.540063,22.203049]}},{"type":"Feature","properties":{"stopCode":"M113","stopName":"提督/紅街市","marker-size":"small","marker-color":"#FFC853"},"geometry":{"type":"Point","coordinates":[113.543385,22.204657]}},{"type":"Feature","properties":{"stopCode":"M14","stopName":"蓮峰游泳池","marker-size":"small","marker-color":"#FFC853"},"geometry":{"type":"Point","coordinates":[113.546018,22.20774]}},{"type":"Feature","properties":{"stopCode":"M12","stopName":"第二警司處","marker-size":"small","marker-color":"#FFC853"},"geometry":{"type":"Point","coordinates":[113.546133,22.210369]}},{"type":"Feature","properties":{"stopCode":"M31","stopName":"白朗古/跑狗場","marker-size":"small","marker-color":"#FFC853"},"geometry":{"type":"Point","coordinates":[113.544938,22.209492]}},{"type":"Feature","properties":{"stopCode":"M26","stopName":"筷子基總站","marker-size":"small","marker-color":"#FFC853"},"geometry":{"type":"Point","coordinates":[113.543306,22.20903]}},{"type":"Feature","properties":{"routeCode":"33","routeName":"筷子基 ↻ 氹仔"},"geometry":{"type":"LineString","coordinates":[[113.543306,22.20903],[113.542762,22.210842],[113.546281,22.210435],[113.547514,22.210237],[113.545304,22.206338],[113.544815,22.205669],[113.542846,22.204137],[113.542132,22.203564],[113.541716,22.203334],[113.539981,22.202928],[113.538166,22.202504],[113.537844,22.202085],[113.537648,22.20151],[113.537479,22.200661],[113.537012,22.199147],[113.536755,22.197712],[113.536433,22.196463],[113.536653,22.196334],[113.538563,22.194561],[113.541707,22.191582],[113.543453,22.189896],[113.543198,22.189655],[113.543367,22.189429],[113.543444,22.18898],[113.543884,22.18886],[113.544168,22.188433],[113.544028,22.187966],[113.543878,22.187609],[113.543798,22.187196],[113.548754,22.165061],[113.548862,22.164783],[113.549247,22.164437],[113.549677,22.164142],[113.550688,22.163712],[113.55071,22.163665],[113.551976,22.163044],[113.552328,22.162889],[113.552912,22.162738],[113.553266,22.162716],[113.553611,22.162749],[113.553933,22.162727],[113.554422,22.162646],[113.554559,22.162668],[113.554645,22.162718],[113.554856,22.162705],[113.555042,22.162542],[113.555097,22.162354],[113.556702,22.160685],[113.556938,22.160396],[113.557423,22.159959],[113.557614,22.159988],[113.557793,22.159891],[113.557863,22.15977],[113.557863,22.159648],[113.557829,22.159536],[113.558219,22.159096],[113.559475,22.157756],[113.559886,22.157345],[113.56003,22.15728],[113.560191,22.157198],[113.560234,22.157045],[113.560218,22.156913],[113.560159,22.156816],[113.560071,22.156754],[113.559918,22.156769],[113.559853,22.156814],[113.559636,22.156776],[113.559456,22.156672],[113.559495,22.156261],[113.559461,22.155843],[113.559214,22.154966],[113.55907,22.154553],[113.558046,22.153507],[113.557509,22.153251],[113.557259,22.153095],[113.55714,22.153048],[113.556041,22.152477],[113.555283,22.152125],[113.555024,22.152046],[113.555009,22.152295],[113.555059,22.152664],[113.556373,22.154241],[113.556217,22.154494],[113.555911,22.15504],[113.555648,22.155169],[113.554995,22.155454],[113.553936,22.15589],[113.553655,22.155947],[113.553483,22.155835],[113.553194,22.15586],[113.55299,22.156053],[113.552963,22.156272],[113.55281,22.156406],[113.551818,22.156854],[113.551428,22.156947],[113.551117,22.15699],[113.547269,22.157018],[113.545021,22.156973],[113.544935,22.157074],[113.544919,22.157216],[113.545024,22.15737],[113.54956,22.157426],[113.550004,22.157392],[113.550651,22.157397],[113.550975,22.157338],[113.552813,22.156516],[113.553073,22.15648],[113.553277,22.156585],[113.553505,22.156583],[113.5537,22.156448],[113.553775,22.156264],[113.553768,22.156183],[113.55399,22.155996],[113.555084,22.155558],[113.555567,22.155293],[113.555927,22.155293],[113.55679,22.155853],[113.557337,22.156217],[113.557777,22.156396],[113.559279,22.156712],[113.559377,22.156772],[113.559564,22.156789],[113.559805,22.157],[113.559816,22.157154],[113.559714,22.15736],[113.559405,22.157685],[113.558309,22.158837],[113.557733,22.159472],[113.557536,22.159417],[113.557327,22.159529],[113.55726,22.159715],[113.557316,22.159874],[113.556368,22.160903],[113.555584,22.161742],[113.555009,22.162279],[113.554907,22.162269],[113.554639,22.162411],[113.554489,22.162527],[113.554186,22.162626],[113.553805,22.162669],[113.553164,22.162602],[113.552805,22.162646],[113.552496,22.162716],[113.552029,22.162886],[113.550881,22.163438],[113.549907,22.163864],[113.549559,22.163955],[113.548627,22.164073],[113.548387,22.164087],[113.548282,22.164114],[113.548231,22.164306],[113.548254,22.164438],[113.548359,22.164509],[113.548509,22.164656],[113.54864,22.164827],[113.548698,22.164977],[113.548719,22.165163],[113.543792,22.187191],[113.543578,22.18746],[113.543251,22.187812],[113.542923,22.188076],[113.542848,22.188429],[113.542972,22.188776],[113.543326,22.188985],[113.543449,22.188994],[113.543367,22.189429],[113.543336,22.189509],[113.54321,22.189653],[113.543339,22.189807],[113.542261,22.190897],[113.542191,22.191026],[113.541952,22.191178],[113.541545,22.191589],[113.540828,22.192303],[113.54082,22.192391],[113.539178,22.193897],[113.536622,22.196337],[113.536391,22.196272],[113.536681,22.197817],[113.537586,22.20135],[113.537853,22.202175],[113.538218,22.202582],[113.540063,22.203049],[113.541497,22.203405],[113.542226,22.203758],[113.543385,22.204657],[113.544838,22.205813],[113.546018,22.20774],[113.547388,22.21026],[113.546133,22.210369],[113.544541,22.210577],[113.544938,22.209492],[113.54521,22.208528],[113.543617,22.208081],[113.543306,22.20903]]}}]}
