{"type":"FeatureCollection","features":[{"type":"Feature","properties":{"stopCode":"M4","stopName":"菜園涌邊街總站","marker-size":"small","marker-color":"#FFC853"},"geometry":{"type":"Point","coordinates":[113.544863,22.213657]}},{"type":"Feature","properties":{"stopCode":"M1","stopName":"關閘總站","marker-size":"small","marker-color":"#FFC853"},"geometry":{"type":"Point","coordinates":[113.548907,22.214503]}},{"type":"Feature","properties":{"stopCode":"M222","stopName":"看台街","marker-size":"small","marker-color":"#FFC853"},"geometry":{"type":"Point","coordinates":[113.550189,22.213174]}},{"type":"Feature","properties":{"stopCode":"M217","stopName":"看台街/中銀","marker-size":"small","marker-color":"#FFC853"},"geometry":{"type":"Point","coordinates":[113.5514,22.212966]}},{"type":"Feature","properties":{"stopCode":"M220","stopName":"祐漢街市","marker-size":"small","marker-color":"#FFC853"},"geometry":{"type":"Point","coordinates":[113.551962,22.211519]}},{"type":"Feature","properties":{"stopCode":"M221","stopName":"祐漢公園","marker-size":"small","marker-color":"#FFC853"},"geometry":{"type":"Point","coordinates":[113.552628,22.210825]}},{"type":"Feature","properties":{"stopCode":"M224","stopName":"永康街/麗華","marker-size":"small","marker-color":"#FFC853"},"geometry":{"type":"Point","coordinates":[113.551376,22.21]}},{"type":"Feature","properties":{"stopCode":"M30","stopName":"黑沙環第五街","marker-size":"small","marker-color":"#FFC853"},"geometry":{"type":"Point","coordinates":[113.550767,22.208507]}},{"type":"Feature","properties":{"stopCode":"M36","stopName":"慕拉士巷","marker-size":"small","marker-color":"#FFC853"},"geometry":{"type":"Point","coordinates":[113.552825,22.206468]}},{"type":"Feature","properties":{"stopCode":"M234","stopName":"東北大馬路/海濱","marker-size":"small","marker-color":"#FFC853"},"geometry":{"type":"Point","coordinates":[113.555225,22.206872]}},{"type":"Feature","properties":{"stopCode":"M235","stopName":"東北大馬路/保利達","marker-size":"small","marker-color":"#FFC853"},"geometry":{"type":"Point","coordinates":[113.557199,22.208918]}},{"type":"Feature","properties":{"stopCode":"T342","stopName":"海灣花園","marker-size":"small","marker-color":"#FFC853"},"geometry":{"type":"Point","coordinates":[113.561956,22.162448]}},{"type":"Feature","properties":{"stopCode":"T409","stopName":"湖畔公園","marker-size":"small","marker-color":"#FFC853"},"geometry":{"type":"Point","coordinates":[113.562122,22.15874]}},{"type":"Feature","properties":{"stopCode":"T318","stopName":"泉悅花園","marker-size":"small","marker-color":"#FFC853"},"geometry":{"type":"Point","coordinates":[113.559495,22.156261]}},{"type":"Feature","properties":{"stopCode":"T319","stopName":"嘉模泳池","marker-size":"small","marker-color":"#FFC853"},"geometry":{"type":"Point","coordinates":[113.559214,22.154966]}},{"type":"Feature","properties":{"stopCode":"T320","stopName":"氹仔官也街","marker-size":"small","marker-color":"#FFC853"},"geometry":{"type":"Point","coordinates":[113.55714,22.153048]}},{"type":"Feature","properties":{"stopCode":"T321","stopName":"氹仔中葡小學","marker-size":"small","marker-color":"#FFC853"},"geometry":{"type":"Point","coordinates":[113.555283,22.152125]}},{"type":"Feature","properties":{"stopCode":"T323","stopName":"黑橋/地堡街","marker-size":"small","marker-color":"#FFC853"},"geometry":{"type":"Point","coordinates":[113.556217,22.154494]}},{"type":"Feature","properties":{"stopCode":"T324","stopName":"澳門運動場","marker-size":"small","marker-color":"#FFC853"},"geometry":{"type":"Point","coordinates":[113.554995,22.155454]}},{"type":"Feature","properties":{"stopCode":"T327","stopName":"賽馬會-1","marker-size":"small","marker-color":"#FFC853"},"geometry":{"type":"Point","coordinates":[113.55038,22.156995]}},{"type":"Feature","properties":{"stopCode":"T329","stopName":"盧伯德圓形地","marker-size":"small","marker-color":"#FFC853"},"geometry":{"type":"Point","coordinates":[113.542872,22.15669]}},{"type":"Feature","properties":{"stopCode":"T337","stopName":"氹仔海濱花園","marker-size":"small","marker-color":"#FFC853"},"geometry":{"type":"Point","coordinates":[113.542124,22.158477]}},{"type":"Feature","properties":{"stopCode":"T336","stopName":"海洋花園瞭望台","marker-size":"small","marker-color":"#FFC853"},"geometry":{"type":"Point","coordinates":[113.542989,22.161602]}},{"type":"Feature","properties":{"stopCode":"T336","stopName":"海洋花園瞭望台","marker-size":"small","marker-color":"#7F642A"},"geometry":{"type":"Point","coordinates":[113.542989,22.161602]}},{"type":"Feature","properties":{"stopCode":"T335","stopName":"海洋廣場","marker-size":"small","marker-color":"#7F642A"},"geometry":{"type":"Point","coordinates":[113.543866,22.160968]}},{"type":"Feature","properties":{"stopCode":"T338","stopName":"氹仔衛生中心","marker-size":"small","marker-color":"#7F642A"},"geometry":{"type":"Point","coordinates":[113.54228,22.158411]}},{"type":"Feature","properties":{"stopCode":"T326","stopName":"柯維納馬路","marker-size":"small","marker-color":"#7F642A"},"geometry":{"type":"Point","coordinates":[113.545425,22.15739]}},{"type":"Feature","properties":{"stopCode":"T332","stopName":"南新花園","marker-size":"small","marker-color":"#7F642A"},"geometry":{"type":"Point","coordinates":[113.54956,22.157426]}},{"type":"Feature","properties":{"stopCode":"T340","stopName":"亞威羅街","marker-size":"small","marker-color":"#7F642A"},"geometry":{"type":"Point","coordinates":[113.553424,22.157519]}},{"type":"Feature","properties":{"stopCode":"T348","stopName":"氹仔濠江中學","marker-size":"small","marker-color":"#7F642A"},"geometry":{"type":"Point","coordinates":[113.556121,22.156153]}},{"type":"Feature","properties":{"stopCode":"T349","stopName":"埃武拉街/花城","marker-size":"small","marker-color":"#7F642A"},"geometry":{"type":"Point","coordinates":[113.557788,22.15755]}},{"type":"Feature","properties":{"stopCode":"T317","stopName":"氹仔花城","marker-size":"small","marker-color":"#7F642A"},"geometry":{"type":"Point","coordinates":[113.559377,22.156772]}},{"type":"Feature","properties":{"stopCode":"T408","stopName":"湖畔大廈","marker-size":"small","marker-color":"#7F642A"},"geometry":{"type":"Point","coordinates":[113.561635,22.158409]}},{"type":"Feature","properties":{"stopCode":"T343","stopName":"高勵雅馬路","marker-size":"small","marker-color":"#7F642A"},"geometry":{"type":"Point","coordinates":[113.561131,22.162055]}},{"type":"Feature","properties":{"stopCode":"M51","stopName":"東北大馬路/廣華","marker-size":"small","marker-color":"#7F642A"},"geometry":{"type":"Point","coordinates":[113.556188,22.207695]}},{"type":"Feature","properties":{"stopCode":"M233","stopName":"東北大馬路/東華","marker-size":"small","marker-color":"#7F642A"},"geometry":{"type":"Point","coordinates":[113.555332,22.206821]}},{"type":"Feature","properties":{"stopCode":"M35","stopName":"慕拉士馬路/望廈","marker-size":"small","marker-color":"#7F642A"},"geometry":{"type":"Point","coordinates":[113.552061,22.207005]}},{"type":"Feature","properties":{"stopCode":"M28","stopName":"黑沙環馬路","marker-size":"small","marker-color":"#7F642A"},"geometry":{"type":"Point","coordinates":[113.549751,22.208122]}},{"type":"Feature","properties":{"stopCode":"M228","stopName":"祐漢第二街","marker-size":"small","marker-color":"#7F642A"},"geometry":{"type":"Point","coordinates":[113.550121,22.210741]}},{"type":"Feature","properties":{"stopCode":"M223","stopName":"長壽馬路","marker-size":"small","marker-color":"#7F642A"},"geometry":{"type":"Point","coordinates":[113.551127,22.212786]}},{"type":"Feature","properties":{"stopCode":"M225","stopName":"看台街/騎士馬路","marker-size":"small","marker-color":"#7F642A"},"geometry":{"type":"Point","coordinates":[113.549406,22.213254]}},{"type":"Feature","properties":{"stopCode":"M7","stopName":"關閘馬路","marker-size":"small","marker-color":"#7F642A"},"geometry":{"type":"Point","coordinates":[113.548544,22.212353]}},{"type":"Feature","properties":{"stopCode":"M8","stopName":"巴波沙大馬路","marker-size":"small","marker-color":"#7F642A"},"geometry":{"type":"Point","coordinates":[113.547594,22.212546]}},{"type":"Feature","properties":{"stopCode":"M63","stopName":"紀念孫中山公園","marker-size":"small","marker-color":"#7F642A"},"geometry":{"type":"Point","coordinates":[113.545776,22.215493]}},{"type":"Feature","properties":{"stopCode":"M4","stopName":"菜園涌邊街總站","marker-size":"small","marker-color":"#7F642A"},"geometry":{"type":"Point","coordinates":[113.544863,22.213657]}},{"type":"Feature","properties":{"routeCode":"34","routeName":"菜園涌邊街 ⇀  海洋花園瞭望台"},"geometry":{"type":"LineString","coordinates":[[113.544863,22.213657],[113.547671,22.213485],[113.547749,22.214578],[113.547832,22.214642],[113.547955,22.21465],[113.548907,22.214503],[113.549991,22.214351],[113.549846,22.213204],[113.550189,22.213174],[113.551202,22.213026],[113.5514,22.212966],[113.551613,22.212716],[113.551707,22.212433],[113.551578,22.211539],[113.551962,22.211519],[113.552451,22.211401],[113.552598,22.211329],[113.552695,22.211165],[113.552698,22.211021],[113.552628,22.210825],[113.552336,22.210675],[113.55144,22.21081],[113.551376,22.21],[113.551287,22.209704],[113.550767,22.208507],[113.550556,22.208276],[113.552825,22.206468],[113.553887,22.205514],[113.554835,22.206498],[113.555225,22.206872],[113.557199,22.208918],[113.55907,22.21094],[113.559132,22.211156],[113.55911,22.211548],[113.559261,22.211725],[113.559427,22.211764],[113.559588,22.211712],[113.559701,22.211613],[113.560014,22.211161],[113.560234,22.21089],[113.560438,22.210525],[113.560744,22.209751],[113.56083,22.209438],[113.56091,22.205653],[113.563099,22.198481],[113.563356,22.196505],[113.563528,22.167614],[113.563764,22.166909],[113.564311,22.166551],[113.56458,22.166154],[113.564429,22.165816],[113.562922,22.164808],[113.562718,22.164544],[113.562504,22.163938],[113.562503,22.163168],[113.562455,22.162869],[113.562267,22.162621],[113.561956,22.162448],[113.561471,22.162187],[113.561165,22.161963],[113.561026,22.161752],[113.560999,22.161583],[113.56102,22.161362],[113.561165,22.161186],[113.562509,22.160023],[113.562563,22.159923],[113.562401,22.15925],[113.562122,22.15874],[113.562042,22.158538],[113.56039,22.157271],[113.56036,22.157211],[113.560213,22.157119],[113.560205,22.156918],[113.560116,22.156766],[113.559937,22.156749],[113.559845,22.156809],[113.559644,22.156774],[113.559451,22.156662],[113.559495,22.156261],[113.559461,22.155843],[113.559214,22.154966],[113.55907,22.154553],[113.558046,22.153507],[113.557509,22.153251],[113.557259,22.153095],[113.55714,22.153048],[113.556041,22.152477],[113.555283,22.152125],[113.555024,22.152046],[113.555009,22.152295],[113.555059,22.152664],[113.556373,22.154241],[113.556217,22.154494],[113.555911,22.15504],[113.555648,22.155169],[113.554995,22.155454],[113.553942,22.155875],[113.553657,22.155947],[113.553483,22.155832],[113.55325,22.155852],[113.553046,22.155959],[113.552968,22.156128],[113.55296,22.156277],[113.552824,22.156401],[113.551812,22.156864],[113.551246,22.156981],[113.551064,22.156988],[113.55038,22.156995],[113.547333,22.157022],[113.544468,22.156968],[113.54409,22.156876],[113.543465,22.156663],[113.543411,22.156575],[113.543272,22.156496],[113.543071,22.156501],[113.542872,22.15669],[113.542803,22.156851],[113.542816,22.156978],[113.542902,22.157087],[113.542124,22.158477],[113.542049,22.158614],[113.542022,22.158971],[113.54203,22.159203],[113.542081,22.159374],[113.542186,22.159606],[113.542344,22.159837],[113.542497,22.159998],[113.542778,22.160214],[113.543302,22.160488],[113.543084,22.160847],[113.542883,22.161263],[113.542989,22.161602]]}},{"type":"Feature","properties":{"routeCode":"34","routeName":"海洋花園瞭望台 ⇀  菜園涌邊街"},"geometry":{"type":"LineString","coordinates":[[113.542989,22.161602],[113.543084,22.161687],[113.543951,22.161881],[113.544069,22.161846],[113.544026,22.161407],[113.543979,22.161179],[113.543866,22.160968],[113.54383,22.160855],[113.543631,22.160597],[113.542851,22.160152],[113.5424,22.15977],[113.542223,22.159474],[113.542143,22.159077],[113.54217,22.158721],[113.542261,22.158495],[113.54228,22.158411],[113.542888,22.157358],[113.543052,22.157174],[113.543248,22.157184],[113.54342,22.157055],[113.543495,22.156871],[113.543639,22.156824],[113.543808,22.156886],[113.544289,22.157179],[113.544618,22.157313],[113.54504,22.157373],[113.545425,22.15739],[113.54956,22.157426],[113.550015,22.157387],[113.550656,22.157397],[113.550932,22.15734],[113.55244,22.156699],[113.553424,22.157519],[113.55363,22.157675],[113.55554,22.155663],[113.556121,22.156153],[113.556388,22.156328],[113.557214,22.157007],[113.557788,22.15755],[113.558083,22.157698],[113.55885,22.156824],[113.558904,22.156831],[113.559084,22.156684],[113.559377,22.156772],[113.559553,22.156794],[113.559794,22.157002],[113.559832,22.157139],[113.559979,22.157271],[113.560111,22.157268],[113.560167,22.157206],[113.560309,22.157263],[113.560401,22.157284],[113.560993,22.157753],[113.561028,22.157894],[113.561203,22.158073],[113.561635,22.158409],[113.561967,22.158667],[113.562262,22.159198],[113.562396,22.159785],[113.562305,22.160048],[113.560731,22.161416],[113.560741,22.161709],[113.561131,22.162055],[113.56131,22.162189],[113.562125,22.162646],[113.562292,22.162798],[113.562418,22.163064],[113.562377,22.164012],[113.562466,22.16438],[113.563096,22.165276],[113.563179,22.165498],[113.563356,22.166596],[113.563407,22.166723],[113.563158,22.197325],[113.56282,22.199038],[113.560958,22.204774],[113.56078,22.205692],[113.560728,22.206984],[113.560711,22.209299],[113.560272,22.2106],[113.5598,22.210838],[113.559446,22.210853],[113.559091,22.210734],[113.556823,22.208295],[113.556188,22.207695],[113.555332,22.206821],[113.554926,22.206409],[113.553961,22.205442],[113.552061,22.207005],[113.551194,22.207784],[113.550304,22.206726],[113.549971,22.207437],[113.549751,22.208122],[113.549574,22.208576],[113.549681,22.208735],[113.549831,22.208762],[113.550051,22.208635],[113.550617,22.209984],[113.550054,22.210177],[113.550121,22.210741],[113.550316,22.211729],[113.55097,22.211633],[113.551091,22.212413],[113.551127,22.212786],[113.551187,22.213016],[113.551262,22.213637],[113.549924,22.213821],[113.549833,22.213207],[113.549406,22.213254],[113.548738,22.213338],[113.548544,22.212353],[113.548328,22.211238],[113.548371,22.21097],[113.548362,22.210893],[113.54821,22.210818],[113.54744,22.210836],[113.547594,22.212546],[113.54766,22.21348],[113.547748,22.214553],[113.547572,22.214799],[113.546987,22.2154],[113.54681,22.215526],[113.546346,22.215663],[113.545776,22.215493],[113.544203,22.215097],[113.544179,22.215005],[113.544224,22.214806],[113.544227,22.214615],[113.544187,22.214431],[113.544095,22.214181],[113.544061,22.214071],[113.544044,22.213676],[113.544863,22.213657]]}}]}
