{"type":"FeatureCollection","features":[{"type":"Feature","properties":{"stopCode":"T330","stopName":"蘇利安圓形地","marker-size":"small","marker-color":"#FFC853"},"geometry":{"type":"Point","coordinates":[113.548627,22.164073]}},{"type":"Feature","properties":{"stopCode":"T405","stopName":"海洋會所","marker-size":"small","marker-color":"#FFC853"},"geometry":{"type":"Point","coordinates":[113.545474,22.163842]}},{"type":"Feature","properties":{"stopCode":"T336","stopName":"海洋花園瞭望台","marker-size":"small","marker-color":"#FFC853"},"geometry":{"type":"Point","coordinates":[113.542989,22.161602]}},{"type":"Feature","properties":{"stopCode":"T307","stopName":"新世紀酒店","marker-size":"small","marker-color":"#FFC853"},"geometry":{"type":"Point","coordinates":[113.554995,22.162567]}},{"type":"Feature","properties":{"stopCode":"T304","stopName":"氹仔大中華廣場","marker-size":"small","marker-color":"#FFC853"},"geometry":{"type":"Point","coordinates":[113.556702,22.160685]}},{"type":"Feature","properties":{"stopCode":"T309","stopName":"泉亮花園","marker-size":"small","marker-color":"#FFC853"},"geometry":{"type":"Point","coordinates":[113.558219,22.159096]}},{"type":"Feature","properties":{"stopCode":"T310","stopName":"孫逸仙馬路/三家村","marker-size":"small","marker-color":"#FFC853"},"geometry":{"type":"Point","coordinates":[113.559475,22.157756]}},{"type":"Feature","properties":{"stopCode":"T408","stopName":"湖畔大廈","marker-size":"small","marker-color":"#FFC853"},"geometry":{"type":"Point","coordinates":[113.561635,22.158409]}},{"type":"Feature","properties":{"stopCode":"T368","stopName":"奧林匹克大馬路","marker-size":"small","marker-color":"#FFC853"},"geometry":{"type":"Point","coordinates":[113.558845,22.156537]}},{"type":"Feature","properties":{"stopCode":"T324","stopName":"澳門運動場","marker-size":"small","marker-color":"#FFC853"},"geometry":{"type":"Point","coordinates":[113.554995,22.155454]}},{"type":"Feature","properties":{"stopCode":"T347","stopName":"運動場圓形地","marker-size":"small","marker-color":"#FFC853"},"geometry":{"type":"Point","coordinates":[113.552366,22.154724]}},{"type":"Feature","properties":{"stopCode":"T362","stopName":"奧林匹克游泳館","marker-size":"small","marker-color":"#FFC853"},"geometry":{"type":"Point","coordinates":[113.552932,22.151626]}},{"type":"Feature","properties":{"stopCode":"T364","stopName":"望德聖母灣馬路/軍營","marker-size":"small","marker-color":"#FFC853"},"geometry":{"type":"Point","coordinates":[113.556088,22.150356]}},{"type":"Feature","properties":{"stopCode":"T366","stopName":"望德聖母灣馬路/紅樹林","marker-size":"small","marker-color":"#FFC853"},"geometry":{"type":"Point","coordinates":[113.562275,22.150684]}},{"type":"Feature","properties":{"stopCode":"T374","stopName":"澳門土木工程實驗室","marker-size":"small","marker-color":"#FFC853"},"geometry":{"type":"Point","coordinates":[113.564419,22.151825]}},{"type":"Feature","properties":{"stopCode":"T406","stopName":"機場圓形地/偉龍","marker-size":"small","marker-color":"#FFC853"},"geometry":{"type":"Point","coordinates":[113.56806,22.155069]}},{"type":"Feature","properties":{"stopCode":"T404","stopName":"駕駛學習暨考試中心","marker-size":"small","marker-color":"#FFC853"},"geometry":{"type":"Point","coordinates":[113.575237,22.150443]}},{"type":"Feature","properties":{"stopCode":"T407","stopName":"霍英東博士大馬路/機場大馬路","marker-size":"small","marker-color":"#FFC853"},"geometry":{"type":"Point","coordinates":[113.571006,22.150722]}},{"type":"Feature","properties":{"stopCode":"T392","stopName":"連貫公路圓形地/新濠天地","marker-size":"small","marker-color":"#FFC853"},"geometry":{"type":"Point","coordinates":[113.5656,22.150213]}},{"type":"Feature","properties":{"stopCode":"T367","stopName":"望德聖母灣馬路/連貫公路","marker-size":"small","marker-color":"#FFC853"},"geometry":{"type":"Point","coordinates":[113.562187,22.15048]}},{"type":"Feature","properties":{"stopCode":"T365","stopName":"望德聖母灣馬路/銀河","marker-size":"small","marker-color":"#FFC853"},"geometry":{"type":"Point","coordinates":[113.556081,22.150206]}},{"type":"Feature","properties":{"stopCode":"T363","stopName":"奧林匹克游泳館圓形地","marker-size":"small","marker-color":"#FFC853"},"geometry":{"type":"Point","coordinates":[113.552313,22.151671]}},{"type":"Feature","properties":{"stopCode":"T361","stopName":"運動場道","marker-size":"small","marker-color":"#FFC853"},"geometry":{"type":"Point","coordinates":[113.55268,22.155839]}},{"type":"Feature","properties":{"stopCode":"T351","stopName":"布拉干薩街","marker-size":"small","marker-color":"#FFC853"},"geometry":{"type":"Point","coordinates":[113.552628,22.15872]}},{"type":"Feature","properties":{"stopCode":"T353","stopName":"廣東馬路/成都街","marker-size":"small","marker-color":"#FFC853"},"geometry":{"type":"Point","coordinates":[113.552577,22.159632]}},{"type":"Feature","properties":{"stopCode":"T346","stopName":"廣東大馬路/鴻發","marker-size":"small","marker-color":"#FFC853"},"geometry":{"type":"Point","coordinates":[113.554575,22.161867]}},{"type":"Feature","properties":{"stopCode":"T301","stopName":"盧廉若/菩提園","marker-size":"small","marker-color":"#FFC853"},"geometry":{"type":"Point","coordinates":[113.55138,22.161722]}},{"type":"Feature","properties":{"stopCode":"T302","stopName":"盧廉若/葡京花園","marker-size":"small","marker-color":"#FFC853"},"geometry":{"type":"Point","coordinates":[113.548275,22.159435]}},{"type":"Feature","properties":{"stopCode":"T326","stopName":"柯維納馬路","marker-size":"small","marker-color":"#FFC853"},"geometry":{"type":"Point","coordinates":[113.545425,22.15739]}},{"type":"Feature","properties":{"stopCode":"T332","stopName":"南新花園","marker-size":"small","marker-color":"#FFC853"},"geometry":{"type":"Point","coordinates":[113.54956,22.157426]}},{"type":"Feature","properties":{"stopCode":"T328","stopName":"賽馬會-2","marker-size":"small","marker-color":"#FFC853"},"geometry":{"type":"Point","coordinates":[113.547333,22.157022]}},{"type":"Feature","properties":{"stopCode":"T329","stopName":"盧伯德圓形地","marker-size":"small","marker-color":"#FFC853"},"geometry":{"type":"Point","coordinates":[113.542872,22.15669]}},{"type":"Feature","properties":{"stopCode":"T337","stopName":"氹仔海濱花園","marker-size":"small","marker-color":"#FFC853"},"geometry":{"type":"Point","coordinates":[113.542124,22.158477]}},{"type":"Feature","properties":{"stopCode":"T334","stopName":"海洋花園/紫荊苑","marker-size":"small","marker-color":"#FFC853"},"geometry":{"type":"Point","coordinates":[113.543835,22.16118]}},{"type":"Feature","properties":{"stopCode":"T330","stopName":"蘇利安圓形地","marker-size":"small","marker-color":"#FFC853"},"geometry":{"type":"Point","coordinates":[113.548627,22.164073]}},{"type":"Feature","properties":{"routeCode":"35","routeName":"蘇利安圓形地 ↻ 駕考中心"},"geometry":{"type":"LineString","coordinates":[[113.548627,22.164073],[113.547274,22.164241],[113.545474,22.163842],[113.544356,22.163536],[113.54413,22.163349],[113.543937,22.163029],[113.543897,22.162731],[113.544063,22.161854],[113.544023,22.161362],[113.543967,22.161136],[113.54383,22.160853],[113.543629,22.160592],[113.543436,22.160478],[113.543294,22.160495],[113.543087,22.160846],[113.542889,22.16128],[113.542989,22.161602],[113.543079,22.161697],[113.543953,22.161874],[113.543827,22.162569],[113.543806,22.162897],[113.543913,22.163223],[113.54433,22.16372],[113.544252,22.163753],[113.5442,22.163877],[113.544213,22.16398],[113.544322,22.164081],[113.544475,22.164098],[113.544641,22.164076],[113.544698,22.164056],[113.544932,22.164037],[113.545335,22.16405],[113.545874,22.164117],[113.546485,22.164226],[113.547108,22.164301],[113.547778,22.16437],[113.549082,22.164256],[113.550401,22.163759],[113.550814,22.16363],[113.552451,22.162835],[113.553135,22.162713],[113.553805,22.162758],[113.55435,22.162649],[113.554545,22.162646],[113.554645,22.162718],[113.554859,22.162701],[113.554995,22.162567],[113.555084,22.162467],[113.555101,22.162343],[113.556702,22.160685],[113.556951,22.160401],[113.557423,22.159959],[113.557617,22.15998],[113.557801,22.159887],[113.557871,22.159732],[113.557818,22.159557],[113.558219,22.159096],[113.559475,22.157756],[113.559866,22.157358],[113.560012,22.157298],[113.560186,22.157209],[113.560312,22.157261],[113.560403,22.157276],[113.560985,22.157735],[113.561029,22.157879],[113.56113,22.158013],[113.561635,22.158409],[113.561946,22.158654],[113.562256,22.159221],[113.562321,22.159062],[113.562037,22.158562],[113.560988,22.157743],[113.560381,22.157273],[113.560357,22.157213],[113.560221,22.157122],[113.560205,22.156911],[113.560111,22.156754],[113.559934,22.156764],[113.559856,22.156811],[113.559668,22.156791],[113.559438,22.156665],[113.558845,22.156537],[113.557692,22.156272],[113.557321,22.156073],[113.55597,22.155204],[113.555578,22.155174],[113.554995,22.155454],[113.553877,22.155885],[113.553658,22.155934],[113.553443,22.15582],[113.553191,22.155842],[113.552834,22.155723],[113.552366,22.154724],[113.552249,22.154615],[113.552137,22.154593],[113.551144,22.152595],[113.551217,22.152411],[113.551408,22.15222],[113.552932,22.151626],[113.556088,22.150356],[113.557581,22.150103],[113.559532,22.150042],[113.560328,22.150142],[113.562275,22.150684],[113.563243,22.150916],[113.563394,22.15101],[113.563448,22.151234],[113.563828,22.151443],[113.564097,22.151453],[113.564284,22.151647],[113.564419,22.151825],[113.565298,22.152814],[113.565916,22.15333],[113.56806,22.155069],[113.568672,22.155522],[113.568882,22.155631],[113.569418,22.15589],[113.56974,22.155775],[113.569799,22.155522],[113.56966,22.155328],[113.569627,22.154841],[113.569724,22.154275],[113.571782,22.15097],[113.573913,22.151945],[113.574926,22.150314],[113.575237,22.150443],[113.574933,22.150295],[113.573914,22.151895],[113.571795,22.151006],[113.572299,22.15026],[113.572127,22.150186],[113.571618,22.150941],[113.571392,22.150946],[113.571006,22.150722],[113.569127,22.149984],[113.569053,22.14985],[113.568901,22.149763],[113.568723,22.149776],[113.568557,22.149915],[113.568525,22.150057],[113.568557,22.150173],[113.568428,22.150367],[113.568265,22.150506],[113.568077,22.150526],[113.567439,22.15032],[113.566707,22.150196],[113.565994,22.150168],[113.5656,22.150213],[113.56514,22.15027],[113.564295,22.150536],[113.564225,22.150596],[113.563936,22.150474],[113.563582,22.150588],[113.563458,22.150712],[113.563153,22.150762],[113.562187,22.15048],[113.560582,22.150037],[113.559693,22.149888],[113.558062,22.149788],[113.556081,22.150206],[113.555269,22.150429],[113.552313,22.151671],[113.551292,22.152074],[113.551104,22.152074],[113.550895,22.151969],[113.550712,22.152094],[113.550707,22.152362],[113.55083,22.152571],[113.550951,22.15264],[113.551189,22.152873],[113.552551,22.155615],[113.552716,22.155803],[113.55268,22.155839],[113.552864,22.155949],[113.552966,22.156091],[113.552968,22.156275],[113.553027,22.156446],[113.553205,22.156562],[113.553386,22.15659],[113.553625,22.156525],[113.554232,22.157036],[113.552628,22.15872],[113.551976,22.159413],[113.552164,22.159448],[113.552577,22.159632],[113.553212,22.159984],[113.553867,22.160535],[113.554237,22.160992],[113.554371,22.161256],[113.554575,22.161867],[113.554698,22.162115],[113.554693,22.162368],[113.554382,22.162572],[113.553936,22.162661],[113.553148,22.162607],[113.55186,22.162154],[113.551549,22.161961],[113.55138,22.161722],[113.550712,22.160873],[113.550112,22.160296],[113.549055,22.159695],[113.548275,22.159435],[113.547896,22.159298],[113.547902,22.158463],[113.547804,22.158185],[113.547591,22.157946],[113.547285,22.157822],[113.546861,22.157827],[113.546034,22.158046],[113.545606,22.158016],[113.544259,22.157564],[113.543428,22.157216],[113.54332,22.157134],[113.543441,22.15703],[113.543484,22.156873],[113.543623,22.156821],[113.543768,22.156854],[113.544281,22.157179],[113.544651,22.157325],[113.545061,22.157377],[113.545425,22.15739],[113.54956,22.157426],[113.548486,22.157422],[113.549685,22.157402],[113.54976,22.157278],[113.549801,22.157169],[113.549653,22.156985],[113.547333,22.157022],[113.544468,22.156968],[113.54409,22.156876],[113.543465,22.156663],[113.543411,22.156575],[113.543272,22.156496],[113.543071,22.156501],[113.542872,22.15669],[113.542803,22.156851],[113.542816,22.156978],[113.542902,22.157087],[113.542124,22.158477],[113.542051,22.158601],[113.542021,22.158961],[113.542029,22.1592],[113.542078,22.159371],[113.542176,22.1596],[113.542329,22.159827],[113.542496,22.159992],[113.542734,22.160174],[113.543296,22.160485],[113.543567,22.160735],[113.543717,22.160929],[113.543835,22.16118],[113.543937,22.161521],[113.543943,22.161876],[113.543803,22.162865],[113.543856,22.163051],[113.543967,22.163272],[113.544321,22.163707],[113.544238,22.163764],[113.544192,22.163903],[113.544265,22.164045],[113.544471,22.164109],[113.544712,22.164057],[113.545225,22.16405],[113.545815,22.164112],[113.546475,22.164251],[113.546856,22.164348],[113.547564,22.164465],[113.547955,22.164482],[113.548285,22.164472],[113.548406,22.164509],[113.549001,22.16446],[113.549105,22.164382],[113.549117,22.164229],[113.549053,22.164102],[113.548907,22.164032],[113.548627,22.164073]]}}]}
