{"type":"FeatureCollection","features":[{"type":"Feature","properties":{"stopCode":"T401","stopName":"拉哥斯街","marker-size":"small","marker-color":"#FFC853"},"geometry":{"type":"Point","coordinates":[113.555875,22.160709]}},{"type":"Feature","properties":{"stopCode":"T371","stopName":"氹仔東北/聚龍明珠","marker-size":"small","marker-color":"#FFC853"},"geometry":{"type":"Point","coordinates":[113.559582,22.165476]}},{"type":"Feature","properties":{"stopCode":"T393","stopName":"澳大體育綜合體","marker-size":"small","marker-color":"#FFC853"},"geometry":{"type":"Point","coordinates":[113.560542,22.162943]}},{"type":"Feature","properties":{"stopCode":"T303","stopName":"澳大圖書館","marker-size":"small","marker-color":"#FFC853"},"geometry":{"type":"Point","coordinates":[113.559334,22.163493]}},{"type":"Feature","properties":{"stopCode":"T305","stopName":"澳門大學","marker-size":"small","marker-color":"#FFC853"},"geometry":{"type":"Point","coordinates":[113.556374,22.163836]}},{"type":"Feature","properties":{"stopCode":"T307","stopName":"新世紀酒店","marker-size":"small","marker-color":"#FFC853"},"geometry":{"type":"Point","coordinates":[113.554995,22.162567]}},{"type":"Feature","properties":{"stopCode":"T401","stopName":"拉哥斯街","marker-size":"small","marker-color":"#FFC853"},"geometry":{"type":"Point","coordinates":[113.555875,22.160709]}},{"type":"Feature","properties":{"routeCode":"37","routeName":"拉哥斯街 ↻ 澳門大學"},"geometry":{"type":"LineString","coordinates":[[113.555875,22.160709],[113.556237,22.161041],[113.555591,22.161725],[113.555017,22.162279],[113.554891,22.162271],[113.554599,22.162423],[113.554535,22.162544],[113.554556,22.162679],[113.554642,22.162733],[113.555058,22.163091],[113.555637,22.163714],[113.555768,22.163913],[113.555854,22.164248],[113.555825,22.165046],[113.555881,22.165364],[113.55609,22.165642],[113.556337,22.165808],[113.556565,22.165871],[113.556954,22.165863],[113.558649,22.165739],[113.558931,22.165664],[113.559582,22.165476],[113.56047,22.16521],[113.560701,22.165065],[113.56097,22.164693],[113.560985,22.164097],[113.560853,22.163519],[113.560542,22.162943],[113.560355,22.162766],[113.559845,22.16245],[113.559561,22.162348],[113.559497,22.162363],[113.559422,22.162318],[113.559365,22.162992],[113.559334,22.163493],[113.559337,22.164061],[113.559237,22.164271],[113.559144,22.164393],[113.558923,22.164559],[113.55877,22.164604],[113.558563,22.164617],[113.558199,22.164583],[113.557055,22.164405],[113.556809,22.164307],[113.556611,22.164153],[113.556535,22.164057],[113.55657,22.164015],[113.556572,22.163968],[113.556558,22.163918],[113.556502,22.163885],[113.556432,22.163871],[113.55638,22.163892],[113.556352,22.163873],[113.556374,22.163836],[113.55619,22.163742],[113.555034,22.163055],[113.55487,22.162938],[113.554847,22.16289],[113.554834,22.162789],[113.554862,22.162696],[113.554995,22.162567],[113.555074,22.162482],[113.555087,22.16238],[113.555012,22.162294],[113.55491,22.162259],[113.55476,22.162058],[113.554527,22.161377],[113.55546,22.160398],[113.555875,22.160709]]}}]}
