{"type":"FeatureCollection","features":[{"type":"Feature","properties":{"stopCode":"T551","stopName":"澳大/研究生宿舍","marker-size":"small","marker-color":"#FFC853"},"geometry":{"type":"Point","coordinates":[113.546233,22.1248]}},{"type":"Feature","properties":{"stopCode":"T552","stopName":"澳大/中央教學樓","marker-size":"small","marker-color":"#FFC853"},"geometry":{"type":"Point","coordinates":[113.546503,22.127462]}},{"type":"Feature","properties":{"stopCode":"T553","stopName":"澳大/大學展館","marker-size":"small","marker-color":"#FFC853"},"geometry":{"type":"Point","coordinates":[113.546575,22.129919]}},{"type":"Feature","properties":{"stopCode":"T425","stopName":"海濱圓形地/西堤馬路","marker-size":"small","marker-color":"#FFC853"},"geometry":{"type":"Point","coordinates":[113.552386,22.141378]}},{"type":"Feature","properties":{"stopCode":"T397","stopName":"路氹城圓形地","marker-size":"small","marker-color":"#FFC853"},"geometry":{"type":"Point","coordinates":[113.557654,22.143889]}},{"type":"Feature","properties":{"stopCode":"T395","stopName":"新城大馬路/銀河","marker-size":"small","marker-color":"#FFC853"},"geometry":{"type":"Point","coordinates":[113.557922,22.149121]}},{"type":"Feature","properties":{"stopCode":"T366","stopName":"望德聖母灣馬路/紅樹林","marker-size":"small","marker-color":"#FFC853"},"geometry":{"type":"Point","coordinates":[113.562275,22.150684]}},{"type":"Feature","properties":{"stopCode":"T306","stopName":"氹仔嘉樂庇馬路","marker-size":"small","marker-color":"#FFC853"},"geometry":{"type":"Point","coordinates":[113.56306,22.153306]}},{"type":"Feature","properties":{"stopCode":"T314","stopName":"亞利雅架前地/泉悅","marker-size":"small","marker-color":"#FFC853"},"geometry":{"type":"Point","coordinates":[113.55987,22.156403]}},{"type":"Feature","properties":{"stopCode":"T408","stopName":"湖畔大廈","marker-size":"small","marker-color":"#FFC853"},"geometry":{"type":"Point","coordinates":[113.561635,22.158409]}},{"type":"Feature","properties":{"stopCode":"T341","stopName":"徐日昇寅公馬路","marker-size":"small","marker-color":"#FFC853"},"geometry":{"type":"Point","coordinates":[113.559533,22.161866]}},{"type":"Feature","properties":{"stopCode":"T428","stopName":"聚龍明珠/榮苑","marker-size":"small","marker-color":"#FFC853"},"geometry":{"type":"Point","coordinates":[113.55888,22.165623]}},{"type":"Feature","properties":{"stopCode":"T307","stopName":"新世紀酒店","marker-size":"small","marker-color":"#FFC853"},"geometry":{"type":"Point","coordinates":[113.554995,22.162567]}},{"type":"Feature","properties":{"stopCode":"T304","stopName":"氹仔大中華廣場","marker-size":"small","marker-color":"#FFC853"},"geometry":{"type":"Point","coordinates":[113.556702,22.160685]}},{"type":"Feature","properties":{"stopCode":"T309","stopName":"泉亮花園","marker-size":"small","marker-color":"#FFC853"},"geometry":{"type":"Point","coordinates":[113.558219,22.159096]}},{"type":"Feature","properties":{"stopCode":"T310","stopName":"孫逸仙馬路/三家村","marker-size":"small","marker-color":"#FFC853"},"geometry":{"type":"Point","coordinates":[113.559475,22.157756]}},{"type":"Feature","properties":{"stopCode":"T313","stopName":"氹仔茵景園","marker-size":"small","marker-color":"#FFC853"},"geometry":{"type":"Point","coordinates":[113.559907,22.156048]}},{"type":"Feature","properties":{"stopCode":"T315","stopName":"氹仔CEM貨倉","marker-size":"small","marker-color":"#FFC853"},"geometry":{"type":"Point","coordinates":[113.561446,22.154648]}},{"type":"Feature","properties":{"stopCode":"T367","stopName":"望德聖母灣馬路/連貫公路","marker-size":"small","marker-color":"#FFC853"},"geometry":{"type":"Point","coordinates":[113.562187,22.15048]}},{"type":"Feature","properties":{"stopCode":"T394","stopName":"新城大馬路/威尼斯人","marker-size":"small","marker-color":"#FFC853"},"geometry":{"type":"Point","coordinates":[113.55811,22.148979]}},{"type":"Feature","properties":{"stopCode":"T396","stopName":"新城大馬路/金光會展","marker-size":"small","marker-color":"#FFC853"},"geometry":{"type":"Point","coordinates":[113.557862,22.143892]}},{"type":"Feature","properties":{"stopCode":"T424","stopName":"海濱圓形地/生態保護區","marker-size":"small","marker-color":"#FFC853"},"geometry":{"type":"Point","coordinates":[113.552568,22.141399]}},{"type":"Feature","properties":{"stopCode":"T552_1","stopName":"澳大/中央教學樓","marker-size":"small","marker-color":"#FFC853"},"geometry":{"type":"Point","coordinates":[113.546462,22.127556]}},{"type":"Feature","properties":{"stopCode":"T533_1","stopName":"澳大/大學展館","marker-size":"small","marker-color":"#FFC853"},"geometry":{"type":"Point","coordinates":[113.54655,22.129986]}},{"type":"Feature","properties":{"stopCode":"T551","stopName":"澳大/研究生宿舍","marker-size":"small","marker-color":"#FFC853"},"geometry":{"type":"Point","coordinates":[113.546233,22.1248]}},{"type":"Feature","properties":{"routeCode":"37U","routeName":"澳大橫琴 ↻ 氹仔"},"geometry":{"type":"LineString","coordinates":[[113.546233,22.1248],[113.546503,22.127462],[113.546575,22.129919],[113.546871,22.131897],[113.5523,22.133408],[113.552386,22.138446],[113.552193,22.139569],[113.552386,22.141378],[113.552311,22.1421],[113.552091,22.142892],[113.552241,22.143677],[113.552627,22.143617],[113.552617,22.143299],[113.552826,22.143135],[113.557525,22.142892],[113.557611,22.142961],[113.557654,22.143889],[113.557922,22.149121],[113.557908,22.149591],[113.557756,22.149808],[113.557236,22.149878],[113.557203,22.150022],[113.557279,22.150146],[113.557595,22.150082],[113.559564,22.150052],[113.560282,22.150126],[113.562275,22.150684],[113.563265,22.150911],[113.563415,22.15102],[113.563485,22.151284],[113.563727,22.151423],[113.563791,22.151671],[113.56306,22.153306],[113.562697,22.154156],[113.562525,22.154339],[113.562216,22.154511],[113.561862,22.154595],[113.560651,22.154706],[113.560224,22.154821],[113.559964,22.155002],[113.559824,22.155239],[113.55977,22.155547],[113.55984,22.156009],[113.559827,22.156113],[113.55987,22.156403],[113.55992,22.156759],[113.559835,22.156829],[113.559805,22.157064],[113.559859,22.157174],[113.560006,22.157288],[113.560111,22.157256],[113.560157,22.157214],[113.560328,22.157276],[113.560401,22.157286],[113.560988,22.157748],[113.561039,22.157892],[113.561106,22.157994],[113.561635,22.158409],[113.56194,22.158654],[113.562251,22.159216],[113.56242,22.1598],[113.56234,22.160038],[113.560725,22.161419],[113.560556,22.161429],[113.560123,22.161414],[113.559782,22.16134],[113.559714,22.161357],[113.559683,22.161412],[113.559533,22.161866],[113.559446,22.162081],[113.55943,22.162156],[113.559414,22.162304],[113.55947,22.162368],[113.559577,22.162356],[113.55976,22.16244],[113.559851,22.162455],[113.560299,22.162726],[113.560685,22.163158],[113.560927,22.163824],[113.560996,22.164415],[113.560894,22.164827],[113.560615,22.165145],[113.560213,22.165289],[113.559116,22.165622],[113.55888,22.165623],[113.558593,22.165736],[113.556688,22.16588],[113.55638,22.165833],[113.556093,22.165647],[113.555894,22.165381],[113.555809,22.165056],[113.555835,22.164648],[113.555857,22.164207],[113.555723,22.163819],[113.555029,22.163063],[113.554859,22.162924],[113.554832,22.162793],[113.554854,22.162693],[113.554995,22.162567],[113.555084,22.162467],[113.555101,22.162343],[113.556702,22.160685],[113.556951,22.160401],[113.557423,22.159959],[113.557617,22.15998],[113.557801,22.159887],[113.557871,22.159732],[113.557818,22.159557],[113.558219,22.159096],[113.559475,22.157756],[113.559813,22.157406],[113.560007,22.157284],[113.560125,22.157249],[113.560222,22.157133],[113.560237,22.156997],[113.560154,22.156801],[113.560092,22.156749],[113.560025,22.156555],[113.559907,22.156048],[113.559839,22.155997],[113.559778,22.155577],[113.559792,22.155395],[113.559856,22.155159],[113.560017,22.154946],[113.560406,22.154752],[113.560647,22.1547],[113.561446,22.154648],[113.562026,22.154578],[113.562498,22.154364],[113.562772,22.153972],[113.563778,22.151684],[113.56393,22.151453],[113.564188,22.151388],[113.564408,22.151155],[113.56444,22.150837],[113.564225,22.150598],[113.563877,22.150459],[113.563592,22.150548],[113.563458,22.150712],[113.563136,22.150737],[113.562166,22.1505],[113.560191,22.149927],[113.55827,22.149768],[113.558121,22.14955],[113.55811,22.148979],[113.557862,22.143892],[113.55782,22.142959],[113.557949,22.142832],[113.557949,22.142653],[113.55781,22.142514],[113.55759,22.142529],[113.557466,22.142688],[113.557128,22.142842],[113.552885,22.143041],[113.552609,22.142914],[113.552568,22.141399],[113.552542,22.140745],[113.552874,22.14006],[113.552799,22.139145],[113.552595,22.138688],[113.552542,22.133938],[113.546741,22.132048],[113.546462,22.127556],[113.54655,22.129986],[113.546233,22.1248]]}}]}
