{"type":"FeatureCollection","features":[{"type":"Feature","properties":{"stopCode":"M172","stopName":"亞馬喇前地","marker-size":"small","marker-color":"#FFC853"},"geometry":{"type":"Point","coordinates":[113.543367,22.189429]}},{"type":"Feature","properties":{"stopCode":"T403","stopName":"史伯泰/麗景灣","marker-size":"small","marker-color":"#FFC853"},"geometry":{"type":"Point","coordinates":[113.553933,22.162727]}},{"type":"Feature","properties":{"stopCode":"T304","stopName":"氹仔大中華廣場","marker-size":"small","marker-color":"#FFC853"},"geometry":{"type":"Point","coordinates":[113.556702,22.160685]}},{"type":"Feature","properties":{"stopCode":"T309","stopName":"泉亮花園","marker-size":"small","marker-color":"#FFC853"},"geometry":{"type":"Point","coordinates":[113.558219,22.159096]}},{"type":"Feature","properties":{"stopCode":"T310","stopName":"孫逸仙馬路/三家村","marker-size":"small","marker-color":"#FFC853"},"geometry":{"type":"Point","coordinates":[113.559475,22.157756]}},{"type":"Feature","properties":{"stopCode":"T313","stopName":"氹仔茵景園","marker-size":"small","marker-color":"#FFC853"},"geometry":{"type":"Point","coordinates":[113.559907,22.156048]}},{"type":"Feature","properties":{"stopCode":"T315","stopName":"氹仔CEM貨倉","marker-size":"small","marker-color":"#FFC853"},"geometry":{"type":"Point","coordinates":[113.561446,22.154648]}},{"type":"Feature","properties":{"stopCode":"T391","stopName":"科技大學圓形地/科技大學","marker-size":"small","marker-color":"#FFC853"},"geometry":{"type":"Point","coordinates":[113.565618,22.150385]}},{"type":"Feature","properties":{"stopCode":"T399","stopName":"體育館馬路/科技大學圓形地","marker-size":"small","marker-color":"#FFC853"},"geometry":{"type":"Point","coordinates":[113.568982,22.149176]}},{"type":"Feature","properties":{"stopCode":"T387","stopName":"保齡球中心","marker-size":"small","marker-color":"#FFC853"},"geometry":{"type":"Point","coordinates":[113.568909,22.143415]}},{"type":"Feature","properties":{"stopCode":"T389","stopName":"澳門東亞運動會體育館","marker-size":"small","marker-color":"#FFC853"},"geometry":{"type":"Point","coordinates":[113.568556,22.139891]}},{"type":"Feature","properties":{"stopCode":"T385","stopName":"蓮花路/蓮花圓形地-1","marker-size":"small","marker-color":"#FFC853"},"geometry":{"type":"Point","coordinates":[113.56462,22.138448]}},{"type":"Feature","properties":{"stopCode":"T357_1","stopName":"路氹邊檢大樓","marker-size":"small","marker-color":"#FFC853"},"geometry":{"type":"Point","coordinates":[113.55946,22.139176]}},{"type":"Feature","properties":{"stopCode":"C690","stopName":"石排灣總站","marker-size":"small","marker-color":"#FFC853"},"geometry":{"type":"Point","coordinates":[113.562958,22.129705]}},{"type":"Feature","properties":{"stopCode":"C691","stopName":"石排灣/居雅大廈","marker-size":"small","marker-color":"#FFC853"},"geometry":{"type":"Point","coordinates":[113.561114,22.129606]}},{"type":"Feature","properties":{"stopCode":"C652","stopName":"路環石礦場","marker-size":"small","marker-color":"#FFC853"},"geometry":{"type":"Point","coordinates":[113.558708,22.128168]}},{"type":"Feature","properties":{"stopCode":"C655","stopName":"石排灣郊野公園","marker-size":"small","marker-color":"#FFC853"},"geometry":{"type":"Point","coordinates":[113.555536,22.125579]}},{"type":"Feature","properties":{"stopCode":"C657","stopName":"路環警察訓練營-1","marker-size":"small","marker-color":"#FFC853"},"geometry":{"type":"Point","coordinates":[113.553514,22.120409]}},{"type":"Feature","properties":{"stopCode":"C659","stopName":"路環市區-2","marker-size":"small","marker-color":"#FFC853"},"geometry":{"type":"Point","coordinates":[113.551835,22.117846]}},{"type":"Feature","properties":{"stopCode":"C659","stopName":"路環市區-2","marker-size":"small","marker-color":"#7F642A"},"geometry":{"type":"Point","coordinates":[113.551835,22.117846]}},{"type":"Feature","properties":{"stopCode":"C656","stopName":"路環警察訓練營-2","marker-size":"small","marker-color":"#7F642A"},"geometry":{"type":"Point","coordinates":[113.553447,22.120534]}},{"type":"Feature","properties":{"stopCode":"C654","stopName":"聯生圓形地","marker-size":"small","marker-color":"#7F642A"},"geometry":{"type":"Point","coordinates":[113.554397,22.124861]}},{"type":"Feature","properties":{"stopCode":"C653","stopName":"石排灣自然教育中心","marker-size":"small","marker-color":"#7F642A"},"geometry":{"type":"Point","coordinates":[113.558309,22.12736]}},{"type":"Feature","properties":{"stopCode":"C692","stopName":"石排灣/樂群樓","marker-size":"small","marker-color":"#7F642A"},"geometry":{"type":"Point","coordinates":[113.561212,22.129603]}},{"type":"Feature","properties":{"stopCode":"C690","stopName":"石排灣總站","marker-size":"small","marker-color":"#7F642A"},"geometry":{"type":"Point","coordinates":[113.562958,22.129705]}},{"type":"Feature","properties":{"stopCode":"T357_1","stopName":"路氹邊檢大樓","marker-size":"small","marker-color":"#7F642A"},"geometry":{"type":"Point","coordinates":[113.55946,22.139176]}},{"type":"Feature","properties":{"stopCode":"T386","stopName":"蓮花路/蓮花圓形地-2","marker-size":"small","marker-color":"#7F642A"},"geometry":{"type":"Point","coordinates":[113.564925,22.139006]}},{"type":"Feature","properties":{"stopCode":"T388","stopName":"體育館/射擊路","marker-size":"small","marker-color":"#7F642A"},"geometry":{"type":"Point","coordinates":[113.568578,22.143019]}},{"type":"Feature","properties":{"stopCode":"T400","stopName":"體育館馬路/新濠天地","marker-size":"small","marker-color":"#7F642A"},"geometry":{"type":"Point","coordinates":[113.568811,22.149129]}},{"type":"Feature","properties":{"stopCode":"T392","stopName":"連貫公路圓形地/新濠天地","marker-size":"small","marker-color":"#7F642A"},"geometry":{"type":"Point","coordinates":[113.5656,22.150213]}},{"type":"Feature","properties":{"stopCode":"T306","stopName":"氹仔嘉樂庇馬路","marker-size":"small","marker-color":"#7F642A"},"geometry":{"type":"Point","coordinates":[113.56306,22.153306]}},{"type":"Feature","properties":{"stopCode":"T314","stopName":"亞利雅架前地/泉悅","marker-size":"small","marker-color":"#7F642A"},"geometry":{"type":"Point","coordinates":[113.55987,22.156403]}},{"type":"Feature","properties":{"stopCode":"T311","stopName":"亞利雅架前地","marker-size":"small","marker-color":"#7F642A"},"geometry":{"type":"Point","coordinates":[113.559405,22.157685]}},{"type":"Feature","properties":{"stopCode":"T312","stopName":"寶龍花園","marker-size":"small","marker-color":"#7F642A"},"geometry":{"type":"Point","coordinates":[113.558309,22.158837]}},{"type":"Feature","properties":{"stopCode":"T308","stopName":"氹仔電訊","marker-size":"small","marker-color":"#7F642A"},"geometry":{"type":"Point","coordinates":[113.556368,22.160903]}},{"type":"Feature","properties":{"stopCode":"T300","stopName":"史伯泰/盧廉若","marker-size":"small","marker-color":"#7F642A"},"geometry":{"type":"Point","coordinates":[113.552805,22.162646]}},{"type":"Feature","properties":{"stopCode":"T330","stopName":"蘇利安圓形地","marker-size":"small","marker-color":"#7F642A"},"geometry":{"type":"Point","coordinates":[113.548627,22.164073]}},{"type":"Feature","properties":{"stopCode":"M172","stopName":"亞馬喇前地","marker-size":"small","marker-color":"#7F642A"},"geometry":{"type":"Point","coordinates":[113.543367,22.189429]}},{"type":"Feature","properties":{"routeCode":"50","routeName":"亞馬喇前地 ⇀  路環市區"},"geometry":{"type":"LineString","coordinates":[[113.543367,22.189429],[113.543444,22.18898],[113.543884,22.18886],[113.544168,22.188433],[113.544028,22.187966],[113.543878,22.187609],[113.543798,22.187196],[113.548754,22.165061],[113.548862,22.164783],[113.549247,22.164437],[113.549677,22.164142],[113.550688,22.163712],[113.55071,22.163665],[113.551976,22.163044],[113.552328,22.162889],[113.552912,22.162738],[113.553266,22.162716],[113.553611,22.162749],[113.553933,22.162727],[113.554422,22.162646],[113.554559,22.162668],[113.554645,22.162718],[113.554856,22.162705],[113.555042,22.162542],[113.555097,22.162354],[113.556702,22.160685],[113.556938,22.160396],[113.557423,22.159959],[113.557614,22.159988],[113.557793,22.159891],[113.557863,22.15977],[113.557863,22.159648],[113.557829,22.159536],[113.558219,22.159096],[113.559475,22.157756],[113.559813,22.157406],[113.560007,22.157284],[113.560125,22.157249],[113.560222,22.157133],[113.560237,22.156997],[113.560154,22.156801],[113.560092,22.156749],[113.560025,22.156555],[113.559907,22.156048],[113.559839,22.155997],[113.559778,22.155577],[113.559792,22.155395],[113.559856,22.155159],[113.560017,22.154946],[113.560406,22.154752],[113.560647,22.1547],[113.561446,22.154648],[113.561994,22.154568],[113.562477,22.154374],[113.562723,22.154116],[113.563775,22.151681],[113.563965,22.151463],[113.564347,22.151279],[113.564445,22.150966],[113.564392,22.150767],[113.564515,22.150583],[113.565618,22.150385],[113.566466,22.150329],[113.567047,22.15041],[113.568039,22.150703],[113.568297,22.150698],[113.568753,22.15033],[113.568968,22.15029],[113.569118,22.150116],[113.569096,22.149937],[113.568989,22.149778],[113.568893,22.14958],[113.568982,22.149176],[113.56922,22.148175],[113.569311,22.147075],[113.569263,22.146285],[113.569155,22.145346],[113.569193,22.145078],[113.569311,22.144939],[113.569252,22.14471],[113.569097,22.144572],[113.569,22.144407],[113.568909,22.143415],[113.568624,22.141764],[113.568556,22.139891],[113.568624,22.138708],[113.568796,22.138479],[113.570861,22.138345],[113.570871,22.138251],[113.57077,22.138156],[113.566865,22.138489],[113.566049,22.138355],[113.56462,22.138448],[113.56393,22.138529],[113.563689,22.13832],[113.563281,22.138231],[113.562895,22.138395],[113.562707,22.138648],[113.561822,22.138758],[113.560771,22.138956],[113.55988,22.138986],[113.55946,22.139176],[113.559907,22.13919],[113.560835,22.139175],[113.561001,22.139339],[113.562788,22.139185],[113.563137,22.139438],[113.563576,22.139429],[113.563947,22.139165],[113.563995,22.138698],[113.563807,22.138385],[113.563485,22.138236],[113.563313,22.137953],[113.563008,22.131873],[113.563043,22.131664],[113.56314,22.131554],[113.563123,22.131371],[113.562941,22.131262],[113.562927,22.130914],[113.562958,22.129705],[113.562954,22.128835],[113.561114,22.12883],[113.561114,22.129606],[113.561127,22.130484],[113.560272,22.130479],[113.559934,22.13036],[113.559789,22.130037],[113.558799,22.129187],[113.558837,22.128625],[113.558708,22.128168],[113.558449,22.127383],[113.558169,22.126921],[113.557745,22.126536],[113.557289,22.126288],[113.555932,22.125868],[113.555536,22.125579],[113.55331,22.123848],[113.553062,22.123423],[113.552944,22.122623],[113.552992,22.122026],[113.553514,22.120409],[113.553663,22.119869],[113.553534,22.119527],[113.552762,22.118861],[113.552434,22.118399],[113.551906,22.11816],[113.551847,22.118103],[113.551893,22.118083],[113.551944,22.117963],[113.55193,22.117889],[113.551835,22.117846]]}},{"type":"Feature","properties":{"routeCode":"50","routeName":"路環市區 ⇀  亞馬喇前地"},"geometry":{"type":"LineString","coordinates":[[113.551835,22.117846],[113.551612,22.117854],[113.551555,22.117887],[113.551541,22.117984],[113.55155,22.118044],[113.55163,22.118081],[113.551855,22.118108],[113.551921,22.118163],[113.552394,22.118379],[113.5527,22.118795],[113.553552,22.119605],[113.553634,22.119753],[113.553636,22.119976],[113.553447,22.120534],[113.552982,22.122056],[113.552912,22.122603],[113.552853,22.123015],[113.55288,22.123656],[113.55318,22.124173],[113.553754,22.124561],[113.554397,22.124861],[113.554714,22.125023],[113.555744,22.125868],[113.55715,22.12633],[113.557573,22.126514],[113.558035,22.126926],[113.558309,22.12736],[113.558648,22.128227],[113.558748,22.12873],[113.558705,22.129123],[113.559794,22.130012],[113.559896,22.13032],[113.560229,22.130469],[113.561216,22.130499],[113.561212,22.129603],[113.56121,22.128854],[113.56296,22.128874],[113.562958,22.129705],[113.562938,22.131265],[113.562809,22.131302],[113.562707,22.131411],[113.562715,22.131568],[113.562815,22.131667],[113.562871,22.131826],[113.563169,22.138012],[113.563078,22.138286],[113.562874,22.138435],[113.562723,22.138624],[113.561881,22.138758],[113.560739,22.138966],[113.559907,22.138986],[113.55946,22.139176],[113.559896,22.139215],[113.560781,22.13917],[113.560996,22.139319],[113.562804,22.139185],[113.56304,22.139418],[113.563641,22.139444],[113.563963,22.139101],[113.564925,22.139006],[113.566301,22.138862],[113.566902,22.138663],[113.567905,22.138559],[113.568281,22.138837],[113.568345,22.140586],[113.568383,22.141525],[113.568578,22.143019],[113.568785,22.144208],[113.568705,22.144611],[113.568597,22.144834],[113.568656,22.145068],[113.568812,22.145167],[113.568946,22.145461],[113.569102,22.14713],[113.569,22.148248],[113.568811,22.149129],[113.568635,22.149808],[113.568538,22.149967],[113.568538,22.150176],[113.568362,22.150459],[113.568088,22.150534],[113.567315,22.150285],[113.566496,22.150188],[113.5656,22.150213],[113.565003,22.15029],[113.564247,22.150568],[113.563898,22.150464],[113.563555,22.150623],[113.563404,22.150886],[113.563485,22.151224],[113.563705,22.151408],[113.563765,22.151681],[113.56306,22.153306],[113.562697,22.154156],[113.562525,22.154339],[113.562216,22.154511],[113.561862,22.154595],[113.560651,22.154706],[113.560224,22.154821],[113.559964,22.155002],[113.559824,22.155239],[113.55977,22.155547],[113.55984,22.156009],[113.559827,22.156113],[113.55987,22.156403],[113.559929,22.156765],[113.559848,22.156825],[113.559809,22.157022],[113.559825,22.157144],[113.559782,22.157264],[113.559722,22.15736],[113.559405,22.157685],[113.558309,22.158837],[113.557733,22.159472],[113.557536,22.159417],[113.557327,22.159529],[113.55726,22.159715],[113.557316,22.159874],[113.556368,22.160903],[113.555584,22.161742],[113.555009,22.162279],[113.554907,22.162269],[113.554639,22.162411],[113.554489,22.162527],[113.554186,22.162626],[113.553805,22.162669],[113.553164,22.162602],[113.552805,22.162646],[113.552496,22.162716],[113.552029,22.162886],[113.550881,22.163438],[113.549907,22.163864],[113.549559,22.163955],[113.548627,22.164073],[113.548387,22.164087],[113.548282,22.164114],[113.548231,22.164306],[113.548254,22.164438],[113.548359,22.164509],[113.548509,22.164656],[113.54864,22.164827],[113.548698,22.164977],[113.548719,22.165163],[113.543792,22.187191],[113.543578,22.18746],[113.543251,22.187812],[113.542923,22.188076],[113.542848,22.188429],[113.542972,22.188776],[113.543326,22.188985],[113.543449,22.188994],[113.543367,22.189429]]}}]}
