{"type":"FeatureCollection","features":[{"type":"Feature","properties":{"stopCode":"M185","stopName":"凱泉灣","marker-size":"small","marker-color":"#FFC853"},"geometry":{"type":"Point","coordinates":[113.533086,22.190865]}},{"type":"Feature","properties":{"stopCode":"M139","stopName":"司打口","marker-size":"small","marker-color":"#FFC853"},"geometry":{"type":"Point","coordinates":[113.535309,22.193582]}},{"type":"Feature","properties":{"stopCode":"M184","stopName":"河邊新街/街市","marker-size":"small","marker-color":"#FFC853"},"geometry":{"type":"Point","coordinates":[113.533952,22.191195]}},{"type":"Feature","properties":{"stopCode":"M188","stopName":"河邊新街/下環","marker-size":"small","marker-color":"#FFC853"},"geometry":{"type":"Point","coordinates":[113.532229,22.188679]}},{"type":"Feature","properties":{"stopCode":"M203","stopName":"媽閣廟站","marker-size":"small","marker-color":"#FFC853"},"geometry":{"type":"Point","coordinates":[113.531091,22.187032]}},{"type":"Feature","properties":{"stopCode":"M198","stopName":"媽閣上街","marker-size":"small","marker-color":"#FFC853"},"geometry":{"type":"Point","coordinates":[113.530049,22.182493]}},{"type":"Feature","properties":{"stopCode":"M197","stopName":"半邊橙/迅發花園","marker-size":"small","marker-color":"#FFC853"},"geometry":{"type":"Point","coordinates":[113.531547,22.181743]}},{"type":"Feature","properties":{"stopCode":"M195","stopName":"西灣/大興大廈","marker-size":"small","marker-color":"#FFC853"},"geometry":{"type":"Point","coordinates":[113.533447,22.182992]}},{"type":"Feature","properties":{"stopCode":"M192","stopName":"民國馬路","marker-size":"small","marker-color":"#FFC853"},"geometry":{"type":"Point","coordinates":[113.536108,22.18586]}},{"type":"Feature","properties":{"stopCode":"M181","stopName":"燒灰爐","marker-size":"small","marker-color":"#FFC853"},"geometry":{"type":"Point","coordinates":[113.5377,22.188531]}},{"type":"Feature","properties":{"stopCode":"M179","stopName":"巴掌圍","marker-size":"small","marker-color":"#FFC853"},"geometry":{"type":"Point","coordinates":[113.538947,22.190714]}},{"type":"Feature","properties":{"stopCode":"M172","stopName":"亞馬喇前地","marker-size":"small","marker-color":"#FFC853"},"geometry":{"type":"Point","coordinates":[113.543367,22.189429]}},{"type":"Feature","properties":{"stopCode":"M69","stopName":"葡京酒店","marker-size":"small","marker-color":"#FFC853"},"geometry":{"type":"Point","coordinates":[113.544951,22.18927]}},{"type":"Feature","properties":{"stopCode":"M164","stopName":"加思欄馬路","marker-size":"small","marker-color":"#FFC853"},"geometry":{"type":"Point","coordinates":[113.544865,22.191074]}},{"type":"Feature","properties":{"stopCode":"M151","stopName":"山頂醫院急診大樓","marker-size":"small","marker-color":"#FFC853"},"geometry":{"type":"Point","coordinates":[113.547446,22.194118]}},{"type":"Feature","properties":{"stopCode":"M147","stopName":"山頂醫院總站","marker-size":"small","marker-color":"#FFC853"},"geometry":{"type":"Point","coordinates":[113.546249,22.194129]}},{"type":"Feature","properties":{"stopCode":"M165","stopName":"加思欄花園","marker-size":"small","marker-color":"#FFC853"},"geometry":{"type":"Point","coordinates":[113.545153,22.192693]}},{"type":"Feature","properties":{"stopCode":"M160","stopName":"十月一日前地","marker-size":"small","marker-color":"#FFC853"},"geometry":{"type":"Point","coordinates":[113.546218,22.190947]}},{"type":"Feature","properties":{"stopCode":"M172","stopName":"亞馬喇前地","marker-size":"small","marker-color":"#FFC853"},"geometry":{"type":"Point","coordinates":[113.543367,22.189429]}},{"type":"Feature","properties":{"stopCode":"M187","stopName":"區華利前地","marker-size":"small","marker-color":"#FFC853"},"geometry":{"type":"Point","coordinates":[113.539147,22.190352]}},{"type":"Feature","properties":{"stopCode":"M199","stopName":"南灣湖景大馬路","marker-size":"small","marker-color":"#FFC853"},"geometry":{"type":"Point","coordinates":[113.537935,22.187001]}},{"type":"Feature","properties":{"stopCode":"M3","stopName":"媽閣總站","marker-size":"small","marker-color":"#FFC853"},"geometry":{"type":"Point","coordinates":[113.528953,22.184697]}},{"type":"Feature","properties":{"stopCode":"M204","stopName":"媽閣廟前地","marker-size":"small","marker-color":"#FFC853"},"geometry":{"type":"Point","coordinates":[113.530863,22.187009]}},{"type":"Feature","properties":{"stopCode":"M185","stopName":"凱泉灣","marker-size":"small","marker-color":"#FFC853"},"geometry":{"type":"Point","coordinates":[113.533086,22.190865]}},{"type":"Feature","properties":{"routeCode":"6B","routeName":"凱泉灣 ↻ 山頂醫院"},"geometry":{"type":"LineString","coordinates":[[113.533086,22.190865],[113.532997,22.190932],[113.534013,22.192228],[113.535097,22.193564],[113.535241,22.194031],[113.53537,22.194056],[113.535451,22.193917],[113.535309,22.193582],[113.533952,22.191195],[113.532229,22.188679],[113.531091,22.187032],[113.53007,22.186358],[113.52955,22.185577],[113.529378,22.184047],[113.529625,22.182368],[113.529883,22.182398],[113.530049,22.182493],[113.530166,22.182441],[113.530174,22.182314],[113.531547,22.181743],[113.532278,22.181422],[113.532948,22.181497],[113.533313,22.181874],[113.533517,22.18256],[113.533447,22.182992],[113.533479,22.183694],[113.534831,22.184335],[113.535164,22.185383],[113.535411,22.185661],[113.536108,22.18586],[113.537282,22.186117],[113.5377,22.188531],[113.53789,22.18912],[113.538212,22.189169],[113.538781,22.190058],[113.538679,22.190197],[113.538947,22.190714],[113.540113,22.191823],[113.540317,22.191786],[113.542782,22.189404],[113.542986,22.189374],[113.543024,22.189096],[113.543249,22.188992],[113.543437,22.188982],[113.543367,22.189429],[113.543444,22.188977],[113.543916,22.188868],[113.544951,22.18927],[113.54553,22.18947],[113.544767,22.19079],[113.544854,22.190848],[113.544865,22.191074],[113.545104,22.191376],[113.545636,22.192131],[113.546628,22.193008],[113.546834,22.193256],[113.547392,22.194081],[113.547446,22.194118],[113.54768,22.194402],[113.548324,22.194715],[113.54855,22.194854],[113.548582,22.194978],[113.548566,22.195333],[113.548721,22.195664],[113.548384,22.195972],[113.548309,22.195912],[113.547944,22.195887],[113.54773,22.195748],[113.547595,22.195475],[113.547279,22.195376],[113.546952,22.195202],[113.546667,22.194926],[113.54656,22.194782],[113.546346,22.194367],[113.546249,22.194129],[113.545958,22.193835],[113.545684,22.193463],[113.545368,22.193369],[113.545115,22.19309],[113.545153,22.192693],[113.545649,22.192134],[113.545108,22.191387],[113.54485,22.190843],[113.54566,22.189507],[113.546644,22.189941],[113.546218,22.190947],[113.546122,22.191148],[113.546206,22.191279],[113.54637,22.191379],[113.546416,22.191505],[113.546239,22.191637],[113.545708,22.191331],[113.544753,22.190723],[113.544069,22.19037],[113.543449,22.189901],[113.543205,22.189665],[113.543342,22.189506],[113.543367,22.189429],[113.543444,22.188976],[113.543916,22.188811],[113.544173,22.188398],[113.544018,22.187986],[113.543621,22.187738],[113.543015,22.187941],[113.542848,22.188413],[113.542783,22.189139],[113.540509,22.191364],[113.540322,22.191413],[113.539737,22.190917],[113.539603,22.190912],[113.539315,22.190639],[113.539147,22.190352],[113.538364,22.189147],[113.538021,22.188263],[113.537892,22.187418],[113.537935,22.187001],[113.537993,22.186243],[113.537747,22.185915],[113.537618,22.185825],[113.537682,22.181682],[113.537811,22.181573],[113.538508,22.181375],[113.538584,22.180739],[113.53809,22.180421],[113.537403,22.180401],[113.536213,22.179795],[113.534335,22.179457],[113.533573,22.179467],[113.53323,22.179676],[113.532243,22.179676],[113.531277,22.180421],[113.530312,22.180997],[113.529421,22.182458],[113.529072,22.183739],[113.528894,22.184275],[113.528953,22.184697],[113.528996,22.185057],[113.529254,22.185136],[113.529731,22.186155],[113.530337,22.186711],[113.530863,22.187009],[113.532692,22.189579],[113.53256,22.18966],[113.532457,22.189779],[113.532243,22.18996],[113.532992,22.190912],[113.533086,22.190865]]}}]}
