{"type":"FeatureCollection","features":[{"type":"Feature","properties":{"stopCode":"M209","stopName":"青洲總站","marker-size":"small","marker-color":"#FFC853"},"geometry":{"type":"Point","coordinates":[113.536174,22.209723]}},{"type":"Feature","properties":{"stopCode":"M205","stopName":"跨境工業區","marker-size":"small","marker-color":"#FFC853"},"geometry":{"type":"Point","coordinates":[113.534522,22.212083]}},{"type":"Feature","properties":{"stopCode":"M211","stopName":"青洲/鴨涌河","marker-size":"small","marker-color":"#FFC853"},"geometry":{"type":"Point","coordinates":[113.537229,22.213395]}},{"type":"Feature","properties":{"stopCode":"M25","stopName":"青洲/自來水公司","marker-size":"small","marker-color":"#FFC853"},"geometry":{"type":"Point","coordinates":[113.540135,22.211146]}},{"type":"Feature","properties":{"stopCode":"M22","stopName":"青洲/聖德蘭學校","marker-size":"small","marker-color":"#FFC853"},"geometry":{"type":"Point","coordinates":[113.541906,22.210937]}},{"type":"Feature","properties":{"stopCode":"M10","stopName":"台山街市","marker-size":"small","marker-color":"#FFC853"},"geometry":{"type":"Point","coordinates":[113.546281,22.210435]}},{"type":"Feature","properties":{"stopCode":"M16","stopName":"提督馬路/雅廉訪","marker-size":"small","marker-color":"#FFC853"},"geometry":{"type":"Point","coordinates":[113.545304,22.206338]}},{"type":"Feature","properties":{"stopCode":"M101","stopName":"幸運閣","marker-size":"small","marker-color":"#FFC853"},"geometry":{"type":"Point","coordinates":[113.547566,22.204187]}},{"type":"Feature","properties":{"stopCode":"M90","stopName":"雅廉花園","marker-size":"small","marker-color":"#FFC853"},"geometry":{"type":"Point","coordinates":[113.549028,22.202962]}},{"type":"Feature","properties":{"stopCode":"M83","stopName":"賈伯樂/培正","marker-size":"small","marker-color":"#FFC853"},"geometry":{"type":"Point","coordinates":[113.54704,22.201021]}},{"type":"Feature","properties":{"stopCode":"M77","stopName":"羅利老馬路","marker-size":"small","marker-color":"#FFC853"},"geometry":{"type":"Point","coordinates":[113.547126,22.200305]}},{"type":"Feature","properties":{"stopCode":"M85","stopName":"羅利老/得勝花園","marker-size":"small","marker-color":"#FFC853"},"geometry":{"type":"Point","coordinates":[113.548206,22.199182]}},{"type":"Feature","properties":{"stopCode":"M270","stopName":"塔石體育館","marker-size":"small","marker-color":"#FFC853"},"geometry":{"type":"Point","coordinates":[113.547291,22.197672]}},{"type":"Feature","properties":{"stopCode":"M153","stopName":"水坑尾/公共行政大樓","marker-size":"small","marker-color":"#FFC853"},"geometry":{"type":"Point","coordinates":[113.543678,22.194044]}},{"type":"Feature","properties":{"stopCode":"M168","stopName":"八角亭","marker-size":"small","marker-color":"#FFC853"},"geometry":{"type":"Point","coordinates":[113.543901,22.19234]}},{"type":"Feature","properties":{"stopCode":"M172","stopName":"亞馬喇前地","marker-size":"small","marker-color":"#FFC853"},"geometry":{"type":"Point","coordinates":[113.543367,22.189429]}},{"type":"Feature","properties":{"stopCode":"M171","stopName":"中區/殷皇子馬路","marker-size":"small","marker-color":"#FFC853"},"geometry":{"type":"Point","coordinates":[113.541545,22.191589]}},{"type":"Feature","properties":{"stopCode":"M134","stopName":"新馬路","marker-size":"small","marker-color":"#FFC853"},"geometry":{"type":"Point","coordinates":[113.539178,22.193897]}},{"type":"Feature","properties":{"stopCode":"M132","stopName":"內港/停車場","marker-size":"small","marker-color":"#FFC853"},"geometry":{"type":"Point","coordinates":[113.536681,22.197817]}},{"type":"Feature","properties":{"stopCode":"M200","stopName":"沙欄仔","marker-size":"small","marker-color":"#FFC853"},"geometry":{"type":"Point","coordinates":[113.537421,22.19879]}},{"type":"Feature","properties":{"stopCode":"M201","stopName":"白鴿巢前地","marker-size":"small","marker-color":"#FFC853"},"geometry":{"type":"Point","coordinates":[113.539443,22.199188]}},{"type":"Feature","properties":{"stopCode":"M121","stopName":"連勝/鏡湖醫院","marker-size":"small","marker-color":"#FFC853"},"geometry":{"type":"Point","coordinates":[113.542371,22.199688]}},{"type":"Feature","properties":{"stopCode":"M119","stopName":"永樂戲院","marker-size":"small","marker-color":"#FFC853"},"geometry":{"type":"Point","coordinates":[113.543012,22.201754]}},{"type":"Feature","properties":{"stopCode":"M110","stopName":"渡船街/婦聯","marker-size":"small","marker-color":"#FFC853"},"geometry":{"type":"Point","coordinates":[113.544055,22.202275]}},{"type":"Feature","properties":{"stopCode":"M86","stopName":"渡船街/俾利喇街","marker-size":"small","marker-color":"#FFC853"},"geometry":{"type":"Point","coordinates":[113.545597,22.201717]}},{"type":"Feature","properties":{"stopCode":"M92","stopName":"俾利喇/高士德","marker-size":"small","marker-color":"#FFC853"},"geometry":{"type":"Point","coordinates":[113.547304,22.203206]}},{"type":"Feature","properties":{"stopCode":"M39","stopName":"澳廣視","marker-size":"small","marker-color":"#FFC853"},"geometry":{"type":"Point","coordinates":[113.549569,22.205917]}},{"type":"Feature","properties":{"stopCode":"M28","stopName":"黑沙環馬路","marker-size":"small","marker-color":"#FFC853"},"geometry":{"type":"Point","coordinates":[113.549751,22.208122]}},{"type":"Feature","properties":{"stopCode":"M11","stopName":"拱形馬路/蓮峰廟","marker-size":"small","marker-color":"#FFC853"},"geometry":{"type":"Point","coordinates":[113.548326,22.210161]}},{"type":"Feature","properties":{"stopCode":"M12","stopName":"第二警司處","marker-size":"small","marker-color":"#FFC853"},"geometry":{"type":"Point","coordinates":[113.546133,22.210369]}},{"type":"Feature","properties":{"stopCode":"M21","stopName":"青洲/嘉應花園","marker-size":"small","marker-color":"#FFC853"},"geometry":{"type":"Point","coordinates":[113.543655,22.210661]}},{"type":"Feature","properties":{"stopCode":"M23","stopName":"青洲/美居廣場","marker-size":"small","marker-color":"#FFC853"},"geometry":{"type":"Point","coordinates":[113.542418,22.210821]}},{"type":"Feature","properties":{"stopCode":"M24","stopName":"青洲/聖若瑟中學","marker-size":"small","marker-color":"#FFC853"},"geometry":{"type":"Point","coordinates":[113.540088,22.21109]}},{"type":"Feature","properties":{"stopCode":"M208","stopName":"青洲福德花園","marker-size":"small","marker-color":"#FFC853"},"geometry":{"type":"Point","coordinates":[113.538693,22.21015]}},{"type":"Feature","properties":{"stopCode":"M209","stopName":"青洲總站","marker-size":"small","marker-color":"#FFC853"},"geometry":{"type":"Point","coordinates":[113.536174,22.209723]}},{"type":"Feature","properties":{"routeCode":"8A","routeName":"青洲 ↻ 亞馬喇前地"},"geometry":{"type":"LineString","coordinates":[[113.536174,22.209723],[113.535434,22.211457],[113.534989,22.211303],[113.534828,22.211308],[113.534522,22.212083],[113.534472,22.212392],[113.534584,22.212645],[113.536392,22.213435],[113.537229,22.213395],[113.539223,22.213172],[113.539667,22.212889],[113.53964,22.21275],[113.539436,22.212711],[113.53942,22.212626],[113.539713,22.211263],[113.539797,22.211136],[113.540135,22.211146],[113.541906,22.210937],[113.546281,22.210435],[113.547514,22.210237],[113.545304,22.206338],[113.545141,22.206164],[113.545737,22.205724],[113.547566,22.204187],[113.549028,22.202962],[113.549234,22.202784],[113.54734,22.201314],[113.54704,22.201021],[113.546697,22.200777],[113.547126,22.200305],[113.547836,22.199597],[113.548206,22.199182],[113.548391,22.198971],[113.547935,22.198496],[113.547291,22.197672],[113.54584,22.195926],[113.544847,22.195688],[113.543678,22.194044],[113.543437,22.193679],[113.543453,22.193512],[113.543619,22.193266],[113.543598,22.192636],[113.543901,22.19234],[113.544064,22.192091],[113.544169,22.190949],[113.544539,22.190788],[113.544703,22.190758],[113.544711,22.190648],[113.543826,22.190191],[113.543321,22.189792],[113.543367,22.189429],[113.543438,22.188985],[113.543943,22.188791],[113.544141,22.188413],[113.543985,22.187971],[113.543562,22.187738],[113.543041,22.187956],[113.542832,22.188483],[113.542977,22.189377],[113.54331,22.189814],[113.541545,22.191589],[113.540828,22.192303],[113.54082,22.192391],[113.539178,22.193897],[113.536622,22.196337],[113.536391,22.196272],[113.536681,22.197817],[113.536868,22.19876],[113.537421,22.19879],[113.537706,22.198854],[113.538008,22.198878],[113.53833,22.198845],[113.538703,22.198875],[113.539164,22.199012],[113.539325,22.199153],[113.539443,22.199188],[113.539705,22.199256],[113.540099,22.199174],[113.542336,22.199613],[113.542371,22.199688],[113.543224,22.200096],[113.543012,22.201754],[113.542902,22.202662],[113.543063,22.202653],[113.544055,22.202275],[113.545597,22.201717],[113.54579,22.201668],[113.54596,22.201558],[113.546536,22.202211],[113.546963,22.202857],[113.547304,22.203206],[113.549569,22.205917],[113.550278,22.206775],[113.549949,22.207476],[113.549751,22.208122],[113.549425,22.209105],[113.54891,22.209994],[113.548642,22.210133],[113.548326,22.210161],[113.546133,22.210369],[113.543655,22.210661],[113.542418,22.210821],[113.540088,22.21109],[113.539771,22.211143],[113.538693,22.21015],[113.538192,22.209753],[113.537596,22.209597],[113.537159,22.209542],[113.536499,22.209676],[113.536395,22.209565],[113.536515,22.20912],[113.536808,22.208472],[113.536776,22.208385],[113.53666,22.208425],[113.536215,22.209594],[113.536174,22.209723]]}}]}
