{"type":"FeatureCollection","features":[{"type":"Feature","properties":{"stopCode":"M1","stopName":"關閘總站","marker-size":"small","marker-color":"#FFC853"},"geometry":{"type":"Point","coordinates":[113.548907,22.214503]}},{"type":"Feature","properties":{"stopCode":"M225","stopName":"看台街/騎士馬路","marker-size":"small","marker-color":"#FFC853"},"geometry":{"type":"Point","coordinates":[113.549406,22.213254]}},{"type":"Feature","properties":{"stopCode":"M7","stopName":"關閘馬路","marker-size":"small","marker-color":"#FFC853"},"geometry":{"type":"Point","coordinates":[113.548544,22.212353]}},{"type":"Feature","properties":{"stopCode":"M229","stopName":"三角花園","marker-size":"small","marker-color":"#FFC853"},"geometry":{"type":"Point","coordinates":[113.54823,22.210429]}},{"type":"Feature","properties":{"stopCode":"M16","stopName":"提督馬路/雅廉訪","marker-size":"small","marker-color":"#FFC853"},"geometry":{"type":"Point","coordinates":[113.545304,22.206338]}},{"type":"Feature","properties":{"stopCode":"M98","stopName":"高士德/連勝","marker-size":"small","marker-color":"#FFC853"},"geometry":{"type":"Point","coordinates":[113.545358,22.204464]}},{"type":"Feature","properties":{"stopCode":"M88","stopName":"高士德/賈伯樂","marker-size":"small","marker-color":"#FFC853"},"geometry":{"type":"Point","coordinates":[113.547948,22.202173]}},{"type":"Feature","properties":{"stopCode":"M73","stopName":"得勝花園","marker-size":"small","marker-color":"#FFC853"},"geometry":{"type":"Point","coordinates":[113.549187,22.199665]}},{"type":"Feature","properties":{"stopCode":"M270","stopName":"塔石體育館","marker-size":"small","marker-color":"#FFC853"},"geometry":{"type":"Point","coordinates":[113.547291,22.197672]}},{"type":"Feature","properties":{"stopCode":"M153","stopName":"水坑尾/公共行政大樓","marker-size":"small","marker-color":"#FFC853"},"geometry":{"type":"Point","coordinates":[113.543678,22.194044]}},{"type":"Feature","properties":{"stopCode":"M168","stopName":"八角亭","marker-size":"small","marker-color":"#FFC853"},"geometry":{"type":"Point","coordinates":[113.543901,22.19234]}},{"type":"Feature","properties":{"stopCode":"M172","stopName":"亞馬喇前地","marker-size":"small","marker-color":"#FFC853"},"geometry":{"type":"Point","coordinates":[113.543367,22.189429]}},{"type":"Feature","properties":{"stopCode":"M187","stopName":"區華利前地","marker-size":"small","marker-color":"#FFC853"},"geometry":{"type":"Point","coordinates":[113.539147,22.190352]}},{"type":"Feature","properties":{"stopCode":"M199","stopName":"南灣湖景大馬路","marker-size":"small","marker-color":"#FFC853"},"geometry":{"type":"Point","coordinates":[113.537935,22.187001]}},{"type":"Feature","properties":{"stopCode":"M177","stopName":"澳門旅遊塔","marker-size":"small","marker-color":"#FFC853"},"geometry":{"type":"Point","coordinates":[113.537858,22.180399]}},{"type":"Feature","properties":{"stopCode":"M177","stopName":"澳門旅遊塔","marker-size":"small","marker-color":"#7F642A"},"geometry":{"type":"Point","coordinates":[113.537858,22.180399]}},{"type":"Feature","properties":{"stopCode":"M181","stopName":"燒灰爐","marker-size":"small","marker-color":"#7F642A"},"geometry":{"type":"Point","coordinates":[113.5377,22.188531]}},{"type":"Feature","properties":{"stopCode":"M179","stopName":"巴掌圍","marker-size":"small","marker-color":"#7F642A"},"geometry":{"type":"Point","coordinates":[113.538947,22.190714]}},{"type":"Feature","properties":{"stopCode":"M68","stopName":"葡京路","marker-size":"small","marker-color":"#7F642A"},"geometry":{"type":"Point","coordinates":[113.543517,22.190121]}},{"type":"Feature","properties":{"stopCode":"M169","stopName":"教育暨青年局","marker-size":"small","marker-color":"#7F642A"},"geometry":{"type":"Point","coordinates":[113.543987,22.191863]}},{"type":"Feature","properties":{"stopCode":"M144","stopName":"水坑尾街","marker-size":"small","marker-color":"#7F642A"},"geometry":{"type":"Point","coordinates":[113.543446,22.193837]}},{"type":"Feature","properties":{"stopCode":"M76","stopName":"盧廉若公園","marker-size":"small","marker-color":"#7F642A"},"geometry":{"type":"Point","coordinates":[113.548287,22.200179]}},{"type":"Feature","properties":{"stopCode":"M84","stopName":"高士德/培正","marker-size":"small","marker-color":"#7F642A"},"geometry":{"type":"Point","coordinates":[113.54851,22.201497]}},{"type":"Feature","properties":{"stopCode":"M91","stopName":"高士德/亞利鴉架街","marker-size":"small","marker-color":"#7F642A"},"geometry":{"type":"Point","coordinates":[113.546144,22.20363]}},{"type":"Feature","properties":{"stopCode":"M17","stopName":"提督馬路/白朗古","marker-size":"small","marker-color":"#7F642A"},"geometry":{"type":"Point","coordinates":[113.545709,22.207213]}},{"type":"Feature","properties":{"stopCode":"M19","stopName":"白朗古將軍馬路","marker-size":"small","marker-color":"#7F642A"},"geometry":{"type":"Point","coordinates":[113.544766,22.20943]}},{"type":"Feature","properties":{"stopCode":"M10","stopName":"台山街市","marker-size":"small","marker-color":"#7F642A"},"geometry":{"type":"Point","coordinates":[113.546281,22.210435]}},{"type":"Feature","properties":{"stopCode":"M8","stopName":"巴波沙大馬路","marker-size":"small","marker-color":"#7F642A"},"geometry":{"type":"Point","coordinates":[113.547594,22.212546]}},{"type":"Feature","properties":{"stopCode":"M1","stopName":"關閘總站","marker-size":"small","marker-color":"#7F642A"},"geometry":{"type":"Point","coordinates":[113.548907,22.214503]}},{"type":"Feature","properties":{"routeCode":"9A","routeName":"關閘 ⇀  旅遊塔"},"geometry":{"type":"LineString","coordinates":[[113.548907,22.214503],[113.549996,22.21435],[113.549828,22.213199],[113.549406,22.213254],[113.548738,22.213338],[113.548544,22.212353],[113.548327,22.211252],[113.548371,22.210987],[113.54823,22.210429],[113.548182,22.210182],[113.547538,22.210244],[113.545304,22.206338],[113.544886,22.205744],[113.544387,22.205321],[113.545358,22.204464],[113.547948,22.202173],[113.549107,22.201124],[113.549246,22.201052],[113.549757,22.200602],[113.549997,22.200345],[113.549187,22.199665],[113.548342,22.198909],[113.547291,22.197672],[113.54584,22.195926],[113.544847,22.195688],[113.543678,22.194044],[113.543437,22.193679],[113.543453,22.193512],[113.543619,22.193266],[113.543598,22.192636],[113.543901,22.19234],[113.544064,22.192091],[113.544169,22.190949],[113.544539,22.190788],[113.544703,22.190758],[113.544711,22.190648],[113.543826,22.190191],[113.543321,22.189792],[113.543367,22.189429],[113.543444,22.188976],[113.543916,22.188811],[113.544173,22.188398],[113.544018,22.187986],[113.543621,22.187738],[113.543015,22.187941],[113.542848,22.188413],[113.542783,22.189139],[113.540509,22.191364],[113.540322,22.191413],[113.539737,22.190917],[113.539603,22.190912],[113.539315,22.190639],[113.539147,22.190352],[113.538364,22.189147],[113.538021,22.188263],[113.537892,22.187418],[113.537935,22.187001],[113.53796,22.186315],[113.537779,22.18592],[113.537618,22.185835],[113.537655,22.181768],[113.537741,22.181564],[113.538101,22.181559],[113.538412,22.18141],[113.53861,22.180923],[113.538439,22.180545],[113.537858,22.180399]]}},{"type":"Feature","properties":{"routeCode":"9A","routeName":"旅遊塔 ⇀  關閘"},"geometry":{"type":"LineString","coordinates":[[113.537858,22.180399],[113.537285,22.18054],[113.536947,22.180724],[113.536845,22.181106],[113.537098,22.18138],[113.537393,22.181494],[113.537537,22.181852],[113.537602,22.185835],[113.537409,22.185955],[113.537387,22.186307],[113.537323,22.186461],[113.5377,22.188531],[113.53789,22.18912],[113.538212,22.189169],[113.538781,22.190058],[113.538679,22.190197],[113.538947,22.190714],[113.540113,22.191823],[113.540317,22.191786],[113.5415,22.190671],[113.541885,22.191046],[113.54195,22.191182],[113.542022,22.191262],[113.543366,22.189983],[113.543517,22.190121],[113.544034,22.190524],[113.544066,22.190723],[113.543983,22.190994],[113.543991,22.191274],[113.543987,22.191863],[113.543924,22.192047],[113.543656,22.192452],[113.54343,22.192588],[113.543503,22.192891],[113.543506,22.193267],[113.543363,22.193495],[113.54336,22.193666],[113.543446,22.193837],[113.546367,22.197691],[113.54664,22.197795],[113.547075,22.197706],[113.547423,22.197989],[113.547603,22.198356],[113.547321,22.198749],[113.547313,22.198925],[113.548287,22.200179],[113.548993,22.201077],[113.54851,22.201497],[113.546144,22.20363],[113.544232,22.205325],[113.544833,22.205812],[113.545709,22.207213],[113.545791,22.207404],[113.545345,22.207751],[113.544766,22.20943],[113.54442,22.210614],[113.546281,22.210435],[113.547396,22.210281],[113.547594,22.212546],[113.547748,22.214577],[113.547893,22.214667],[113.548907,22.214503]]}}]}
