{"type":"FeatureCollection","features":[{"type":"Feature","properties":{"stopCode":"M230","stopName":"高利亞海軍上將/政府綜合服務大樓","marker-size":"small","marker-color":"#FFC853"},"geometry":{"type":"Point","coordinates":[113.552899,22.208505]}},{"type":"Feature","properties":{"stopCode":"M234","stopName":"東北大馬路/海濱","marker-size":"small","marker-color":"#FFC853"},"geometry":{"type":"Point","coordinates":[113.555225,22.206872]}},{"type":"Feature","properties":{"stopCode":"M235","stopName":"東北大馬路/保利達","marker-size":"small","marker-color":"#FFC853"},"geometry":{"type":"Point","coordinates":[113.557199,22.208918]}},{"type":"Feature","properties":{"stopCode":"T342","stopName":"海灣花園","marker-size":"small","marker-color":"#FFC853"},"geometry":{"type":"Point","coordinates":[113.561956,22.162448]}},{"type":"Feature","properties":{"stopCode":"T409","stopName":"湖畔公園","marker-size":"small","marker-color":"#FFC853"},"geometry":{"type":"Point","coordinates":[113.562122,22.15874]}},{"type":"Feature","properties":{"stopCode":"T368","stopName":"奧林匹克大馬路","marker-size":"small","marker-color":"#FFC853"},"geometry":{"type":"Point","coordinates":[113.558845,22.156537]}},{"type":"Feature","properties":{"stopCode":"T324","stopName":"澳門運動場","marker-size":"small","marker-color":"#FFC853"},"geometry":{"type":"Point","coordinates":[113.554995,22.155454]}},{"type":"Feature","properties":{"stopCode":"T347","stopName":"運動場圓形地","marker-size":"small","marker-color":"#FFC853"},"geometry":{"type":"Point","coordinates":[113.552366,22.154724]}},{"type":"Feature","properties":{"stopCode":"T362","stopName":"奧林匹克游泳館","marker-size":"small","marker-color":"#FFC853"},"geometry":{"type":"Point","coordinates":[113.552932,22.151626]}},{"type":"Feature","properties":{"stopCode":"T364","stopName":"望德聖母灣馬路/軍營","marker-size":"small","marker-color":"#FFC853"},"geometry":{"type":"Point","coordinates":[113.556088,22.150356]}},{"type":"Feature","properties":{"stopCode":"T366","stopName":"望德聖母灣馬路/紅樹林","marker-size":"small","marker-color":"#FFC853"},"geometry":{"type":"Point","coordinates":[113.562275,22.150684]}},{"type":"Feature","properties":{"stopCode":"T367","stopName":"望德聖母灣馬路/連貫公路","marker-size":"small","marker-color":"#FFC853"},"geometry":{"type":"Point","coordinates":[113.562187,22.15048]}},{"type":"Feature","properties":{"stopCode":"T365","stopName":"望德聖母灣馬路/銀河","marker-size":"small","marker-color":"#FFC853"},"geometry":{"type":"Point","coordinates":[113.556081,22.150206]}},{"type":"Feature","properties":{"stopCode":"T363","stopName":"奧林匹克游泳館圓形地","marker-size":"small","marker-color":"#FFC853"},"geometry":{"type":"Point","coordinates":[113.552313,22.151671]}},{"type":"Feature","properties":{"stopCode":"T361","stopName":"運動場道","marker-size":"small","marker-color":"#FFC853"},"geometry":{"type":"Point","coordinates":[113.55268,22.155839]}},{"type":"Feature","properties":{"stopCode":"T325","stopName":"華寶花園","marker-size":"small","marker-color":"#FFC853"},"geometry":{"type":"Point","coordinates":[113.555084,22.155558]}},{"type":"Feature","properties":{"stopCode":"T339","stopName":"花城公園","marker-size":"small","marker-color":"#FFC853"},"geometry":{"type":"Point","coordinates":[113.55679,22.155853]}},{"type":"Feature","properties":{"stopCode":"T317","stopName":"雍景灣","marker-size":"small","marker-color":"#FFC853"},"geometry":{"type":"Point","coordinates":[113.559377,22.156772]}},{"type":"Feature","properties":{"stopCode":"T408","stopName":"湖畔大廈","marker-size":"small","marker-color":"#FFC853"},"geometry":{"type":"Point","coordinates":[113.561635,22.158409]}},{"type":"Feature","properties":{"stopCode":"T343","stopName":"高勵雅馬路","marker-size":"small","marker-color":"#FFC853"},"geometry":{"type":"Point","coordinates":[113.561131,22.162055]}},{"type":"Feature","properties":{"stopCode":"M247","stopName":"君悅灣","marker-size":"small","marker-color":"#FFC853"},"geometry":{"type":"Point","coordinates":[113.557234,22.212877]}},{"type":"Feature","properties":{"stopCode":"M231","stopName":"馬場東大馬路/黑沙環衛生中心","marker-size":"small","marker-color":"#FFC853"},"geometry":{"type":"Point","coordinates":[113.55427,22.212536]}},{"type":"Feature","properties":{"stopCode":"M230","stopName":"高利亞海軍上將/政府綜合服務大樓","marker-size":"small","marker-color":"#FFC853"},"geometry":{"type":"Point","coordinates":[113.552899,22.208505]}},{"type":"Feature","properties":{"routeCode":"MT3","routeName":"高利亞海軍上將馬路 ↻ 望德聖母灣"},"geometry":{"type":"LineString","coordinates":[[113.552899,22.208505],[113.552845,22.208335],[113.552818,22.208149],[113.55384,22.207332],[113.55484,22.206498],[113.555225,22.206872],[113.557199,22.208918],[113.55907,22.21094],[113.559132,22.211156],[113.55911,22.211548],[113.559261,22.211725],[113.559427,22.211764],[113.559588,22.211712],[113.559701,22.211613],[113.560014,22.211161],[113.560234,22.21089],[113.560438,22.210525],[113.560744,22.209751],[113.56083,22.209438],[113.56091,22.205653],[113.563099,22.198481],[113.563356,22.196505],[113.563528,22.167614],[113.563764,22.166909],[113.564311,22.166551],[113.56458,22.166154],[113.564429,22.165816],[113.562922,22.164808],[113.562718,22.164544],[113.562504,22.163938],[113.562503,22.163168],[113.562455,22.162869],[113.562267,22.162621],[113.561956,22.162448],[113.561471,22.162187],[113.561165,22.161963],[113.561026,22.161752],[113.560999,22.161583],[113.56102,22.161362],[113.561165,22.161186],[113.562509,22.160023],[113.562563,22.159923],[113.562401,22.15925],[113.562122,22.15874],[113.562021,22.158528],[113.560433,22.157305],[113.560358,22.157211],[113.560218,22.157112],[113.560197,22.156913],[113.560116,22.156749],[113.559929,22.156759],[113.559859,22.156821],[113.559644,22.156777],[113.559443,22.156675],[113.558845,22.156537],[113.557692,22.156272],[113.557321,22.156073],[113.55597,22.155204],[113.555578,22.155174],[113.554995,22.155454],[113.553877,22.155885],[113.553658,22.155934],[113.553443,22.15582],[113.553191,22.155842],[113.552834,22.155723],[113.552366,22.154724],[113.552249,22.154615],[113.552137,22.154593],[113.551144,22.152595],[113.551217,22.152411],[113.551408,22.15222],[113.552932,22.151626],[113.556088,22.150356],[113.557581,22.150103],[113.559532,22.150042],[113.560328,22.150142],[113.562275,22.150684],[113.563217,22.150901],[113.563405,22.151055],[113.563582,22.151363],[113.563962,22.151468],[113.564253,22.151344],[113.564429,22.15109],[113.564408,22.150747],[113.56414,22.150509],[113.563759,22.150489],[113.563469,22.150712],[113.563254,22.150747],[113.562187,22.15048],[113.560582,22.150037],[113.559693,22.149888],[113.558062,22.149788],[113.556081,22.150206],[113.555269,22.150429],[113.552313,22.151671],[113.551292,22.152074],[113.551104,22.152074],[113.550895,22.151969],[113.550712,22.152094],[113.550707,22.152362],[113.55083,22.152571],[113.550951,22.15264],[113.551189,22.152873],[113.552551,22.155615],[113.552716,22.155803],[113.55268,22.155839],[113.552982,22.156084],[113.552982,22.156317],[113.553099,22.156508],[113.553389,22.156575],[113.553684,22.156471],[113.553792,22.156198],[113.55406,22.155949],[113.555084,22.155558],[113.555567,22.155293],[113.555927,22.155293],[113.55679,22.155853],[113.557337,22.156217],[113.557777,22.156396],[113.559279,22.156712],[113.559377,22.156772],[113.559553,22.156794],[113.559794,22.157002],[113.559832,22.157139],[113.559979,22.157271],[113.560111,22.157268],[113.560167,22.157206],[113.560309,22.157263],[113.560401,22.157284],[113.560993,22.157753],[113.561028,22.157894],[113.561203,22.158073],[113.561635,22.158409],[113.561967,22.158667],[113.562262,22.159198],[113.562396,22.159785],[113.562305,22.160048],[113.560731,22.161416],[113.560741,22.161709],[113.561131,22.162055],[113.56131,22.162189],[113.562125,22.162646],[113.562292,22.162798],[113.562418,22.163064],[113.562377,22.164012],[113.562466,22.16438],[113.563096,22.165276],[113.563179,22.165498],[113.563356,22.166596],[113.563407,22.166723],[113.563158,22.197325],[113.56282,22.199038],[113.560958,22.204774],[113.56078,22.205692],[113.560728,22.206984],[113.560711,22.209299],[113.560272,22.2106],[113.559811,22.210843],[113.559494,22.210833],[113.55914,22.211151],[113.559108,22.211827],[113.559001,22.212079],[113.558228,22.212527],[113.557234,22.212877],[113.554988,22.213644],[113.55479,22.213594],[113.554634,22.213451],[113.55427,22.212536],[113.553786,22.211091],[113.55362,22.210769],[113.552904,22.209222],[113.552856,22.209016],[113.552899,22.208505]]}}]}
