{"type":"FeatureCollection","features":[{"type":"Feature","properties":{"stopCode":"M95","stopName":"沙梨頭北街/筷子基北灣","marker-size":"small","marker-color":"#FFC853"},"geometry":{"type":"Point","coordinates":[113.54167,22.209153]}},{"type":"Feature","properties":{"stopCode":"M22","stopName":"青洲/聖德蘭學校","marker-size":"small","marker-color":"#FFC853"},"geometry":{"type":"Point","coordinates":[113.541906,22.210937]}},{"type":"Feature","properties":{"stopCode":"M10","stopName":"台山街市","marker-size":"small","marker-color":"#FFC853"},"geometry":{"type":"Point","coordinates":[113.546281,22.210435]}},{"type":"Feature","properties":{"stopCode":"M16","stopName":"提督馬路/雅廉訪","marker-size":"small","marker-color":"#FFC853"},"geometry":{"type":"Point","coordinates":[113.545304,22.206338]}},{"type":"Feature","properties":{"stopCode":"M98","stopName":"高士德/連勝","marker-size":"small","marker-color":"#FFC853"},"geometry":{"type":"Point","coordinates":[113.545358,22.204464]}},{"type":"Feature","properties":{"stopCode":"M88","stopName":"高士德/賈伯樂","marker-size":"small","marker-color":"#FFC853"},"geometry":{"type":"Point","coordinates":[113.547948,22.202173]}},{"type":"Feature","properties":{"stopCode":"M117","stopName":"羅理基/馬六甲街","marker-size":"small","marker-color":"#FFC853"},"geometry":{"type":"Point","coordinates":[113.552714,22.196187]}},{"type":"Feature","properties":{"stopCode":"M264","stopName":"孫逸仙大馬路/漁人碼頭","marker-size":"small","marker-color":"#FFC853"},"geometry":{"type":"Point","coordinates":[113.55588,22.190049]}},{"type":"Feature","properties":{"stopCode":"M257","stopName":"新口岸/文化中心","marker-size":"small","marker-color":"#FFC853"},"geometry":{"type":"Point","coordinates":[113.554297,22.187622]}},{"type":"Feature","properties":{"stopCode":"M250","stopName":"新口岸/柏嘉街","marker-size":"small","marker-color":"#FFC853"},"geometry":{"type":"Point","coordinates":[113.550121,22.186901]}},{"type":"Feature","properties":{"stopCode":"M268","stopName":"城市日前地","marker-size":"small","marker-color":"#FFC853"},"geometry":{"type":"Point","coordinates":[113.547838,22.187225]}},{"type":"Feature","properties":{"stopCode":"M263","stopName":"仙德麗街","marker-size":"small","marker-color":"#FFC853"},"geometry":{"type":"Point","coordinates":[113.54669,22.189313]}},{"type":"Feature","properties":{"stopCode":"M172","stopName":"亞馬喇前地","marker-size":"small","marker-color":"#FFC853"},"geometry":{"type":"Point","coordinates":[113.543367,22.189429]}},{"type":"Feature","properties":{"stopCode":"T307","stopName":"新世紀酒店","marker-size":"small","marker-color":"#FFC853"},"geometry":{"type":"Point","coordinates":[113.554995,22.162567]}},{"type":"Feature","properties":{"stopCode":"T304","stopName":"氹仔大中華廣場","marker-size":"small","marker-color":"#FFC853"},"geometry":{"type":"Point","coordinates":[113.556702,22.160685]}},{"type":"Feature","properties":{"stopCode":"T370","stopName":"基馬拉斯/成都街","marker-size":"small","marker-color":"#FFC853"},"geometry":{"type":"Point","coordinates":[113.554609,22.157193]}},{"type":"Feature","properties":{"stopCode":"T325","stopName":"華寶花園","marker-size":"small","marker-color":"#FFC853"},"geometry":{"type":"Point","coordinates":[113.555084,22.155558]}},{"type":"Feature","properties":{"stopCode":"T339","stopName":"花城公園","marker-size":"small","marker-color":"#FFC853"},"geometry":{"type":"Point","coordinates":[113.55679,22.155853]}},{"type":"Feature","properties":{"stopCode":"T317","stopName":"雍景灣","marker-size":"small","marker-color":"#FFC853"},"geometry":{"type":"Point","coordinates":[113.559377,22.156772]}},{"type":"Feature","properties":{"stopCode":"T408","stopName":"湖畔大廈","marker-size":"small","marker-color":"#FFC853"},"geometry":{"type":"Point","coordinates":[113.561635,22.158409]}},{"type":"Feature","properties":{"stopCode":"T313","stopName":"氹仔茵景園","marker-size":"small","marker-color":"#FFC853"},"geometry":{"type":"Point","coordinates":[113.559907,22.156048]}},{"type":"Feature","properties":{"stopCode":"T315","stopName":"氹仔CEM貨倉","marker-size":"small","marker-color":"#FFC853"},"geometry":{"type":"Point","coordinates":[113.561446,22.154648]}},{"type":"Feature","properties":{"stopCode":"T374","stopName":"澳門土木工程實驗室","marker-size":"small","marker-color":"#FFC853"},"geometry":{"type":"Point","coordinates":[113.564419,22.151825]}},{"type":"Feature","properties":{"stopCode":"T406","stopName":"機場圓形地/偉龍","marker-size":"small","marker-color":"#FFC853"},"geometry":{"type":"Point","coordinates":[113.56806,22.155069]}},{"type":"Feature","properties":{"stopCode":"T345","stopName":"臨時客運碼頭","marker-size":"small","marker-color":"#FFC853"},"geometry":{"type":"Point","coordinates":[113.577833,22.162192]}},{"type":"Feature","properties":{"stopCode":"T345","stopName":"臨時客運碼頭","marker-size":"small","marker-color":"#7F642A"},"geometry":{"type":"Point","coordinates":[113.577833,22.162192]}},{"type":"Feature","properties":{"stopCode":"T344","stopName":"機場倉庫","marker-size":"small","marker-color":"#7F642A"},"geometry":{"type":"Point","coordinates":[113.57383,22.161517]}},{"type":"Feature","properties":{"stopCode":"T356","stopName":"澳門機場","marker-size":"small","marker-color":"#7F642A"},"geometry":{"type":"Point","coordinates":[113.574452,22.158328]}},{"type":"Feature","properties":{"stopCode":"T358_1","stopName":"機場圓形地/科大醫院","marker-size":"small","marker-color":"#7F642A"},"geometry":{"type":"Point","coordinates":[113.567933,22.154771]}},{"type":"Feature","properties":{"stopCode":"T373","stopName":"偉龍/科技大學","marker-size":"small","marker-color":"#7F642A"},"geometry":{"type":"Point","coordinates":[113.565021,22.152199]}},{"type":"Feature","properties":{"stopCode":"T306","stopName":"氹仔嘉樂庇馬路","marker-size":"small","marker-color":"#7F642A"},"geometry":{"type":"Point","coordinates":[113.56306,22.153306]}},{"type":"Feature","properties":{"stopCode":"T314","stopName":"亞利雅架前地/泉悅","marker-size":"small","marker-color":"#7F642A"},"geometry":{"type":"Point","coordinates":[113.55987,22.156403]}},{"type":"Feature","properties":{"stopCode":"T408","stopName":"湖畔大廈","marker-size":"small","marker-color":"#7F642A"},"geometry":{"type":"Point","coordinates":[113.561635,22.158409]}},{"type":"Feature","properties":{"stopCode":"T311","stopName":"亞利雅架前地","marker-size":"small","marker-color":"#7F642A"},"geometry":{"type":"Point","coordinates":[113.559405,22.157685]}},{"type":"Feature","properties":{"stopCode":"T312","stopName":"寶龍花園","marker-size":"small","marker-color":"#7F642A"},"geometry":{"type":"Point","coordinates":[113.558309,22.158837]}},{"type":"Feature","properties":{"stopCode":"T308","stopName":"氹仔電訊","marker-size":"small","marker-color":"#7F642A"},"geometry":{"type":"Point","coordinates":[113.556368,22.160903]}},{"type":"Feature","properties":{"stopCode":"T307","stopName":"新世紀酒店","marker-size":"small","marker-color":"#7F642A"},"geometry":{"type":"Point","coordinates":[113.554995,22.162567]}},{"type":"Feature","properties":{"stopCode":"T300","stopName":"史伯泰/盧廉若","marker-size":"small","marker-color":"#7F642A"},"geometry":{"type":"Point","coordinates":[113.552805,22.162646]}},{"type":"Feature","properties":{"stopCode":"T330","stopName":"蘇利安圓形地","marker-size":"small","marker-color":"#7F642A"},"geometry":{"type":"Point","coordinates":[113.548627,22.164073]}},{"type":"Feature","properties":{"stopCode":"M172","stopName":"亞馬喇前地","marker-size":"small","marker-color":"#7F642A"},"geometry":{"type":"Point","coordinates":[113.543367,22.189429]}},{"type":"Feature","properties":{"stopCode":"M69","stopName":"葡京酒店","marker-size":"small","marker-color":"#7F642A"},"geometry":{"type":"Point","coordinates":[113.544951,22.18927]}},{"type":"Feature","properties":{"stopCode":"M160","stopName":"十月一日前地","marker-size":"small","marker-color":"#7F642A"},"geometry":{"type":"Point","coordinates":[113.546218,22.190947]}},{"type":"Feature","properties":{"stopCode":"M169","stopName":"教育暨青年局","marker-size":"small","marker-color":"#7F642A"},"geometry":{"type":"Point","coordinates":[113.543987,22.191863]}},{"type":"Feature","properties":{"stopCode":"M144","stopName":"水坑尾街","marker-size":"small","marker-color":"#7F642A"},"geometry":{"type":"Point","coordinates":[113.543446,22.193837]}},{"type":"Feature","properties":{"stopCode":"M76","stopName":"盧廉若公園","marker-size":"small","marker-color":"#7F642A"},"geometry":{"type":"Point","coordinates":[113.548287,22.200179]}},{"type":"Feature","properties":{"stopCode":"M84","stopName":"高士德/培正","marker-size":"small","marker-color":"#7F642A"},"geometry":{"type":"Point","coordinates":[113.54851,22.201497]}},{"type":"Feature","properties":{"stopCode":"M99","stopName":"高士德/紅街市","marker-size":"small","marker-color":"#7F642A"},"geometry":{"type":"Point","coordinates":[113.544681,22.204919]}},{"type":"Feature","properties":{"stopCode":"M94","stopName":"沙梨頭南街/蘭花前地","marker-size":"small","marker-color":"#7F642A"},"geometry":{"type":"Point","coordinates":[113.542975,22.20634]}},{"type":"Feature","properties":{"stopCode":"M108","stopName":"筷子基社屋","marker-size":"small","marker-color":"#7F642A"},"geometry":{"type":"Point","coordinates":[113.540604,22.207383]}},{"type":"Feature","properties":{"stopCode":"M95","stopName":"沙梨頭北街/筷子基北灣","marker-size":"small","marker-color":"#7F642A"},"geometry":{"type":"Point","coordinates":[113.54167,22.209153]}},{"type":"Feature","properties":{"routeCode":"N2","routeName":"筷子基北灣 ⇀  臨時客運碼頭"},"geometry":{"type":"LineString","coordinates":[[113.54167,22.209153],[113.541134,22.210679],[113.540959,22.211014],[113.541445,22.210972],[113.541906,22.210937],[113.546281,22.210435],[113.547514,22.210237],[113.545304,22.206338],[113.544886,22.205744],[113.544387,22.205321],[113.545358,22.204464],[113.547948,22.202173],[113.548199,22.201998],[113.548462,22.201712],[113.549758,22.200528],[113.549943,22.200309],[113.550742,22.19903],[113.552062,22.196514],[113.552255,22.196385],[113.552442,22.196375],[113.552603,22.19645],[113.552751,22.196564],[113.55289,22.196708],[113.553588,22.197568],[113.553738,22.197597],[113.553832,22.197545],[113.553837,22.197433],[113.553118,22.196475],[113.552714,22.196187],[113.552265,22.195938],[113.552161,22.195802],[113.553296,22.195114],[113.554314,22.194455],[113.554805,22.195129],[113.554916,22.195188],[113.555034,22.195166],[113.555127,22.195049],[113.55517,22.194868],[113.555149,22.193818],[113.555197,22.193321],[113.555819,22.190057],[113.55588,22.190049],[113.556056,22.189934],[113.55649,22.18973],[113.556434,22.189625],[113.556098,22.189759],[113.555999,22.189727],[113.555911,22.189625],[113.556219,22.188249],[113.556375,22.18821],[113.556477,22.188023],[113.55645,22.18782],[113.556342,22.18772],[113.556096,22.187686],[113.555937,22.18779],[113.555881,22.187912],[113.555722,22.188029],[113.555543,22.188055],[113.555366,22.188036],[113.554297,22.187622],[113.551447,22.186546],[113.551128,22.187281],[113.550121,22.186901],[113.548918,22.186402],[113.548526,22.187276],[113.547346,22.186883],[113.547269,22.187045],[113.547446,22.187144],[113.547515,22.187117],[113.547601,22.187132],[113.547838,22.187225],[113.547963,22.187265],[113.54801,22.187365],[113.548414,22.187532],[113.547522,22.189529],[113.547463,22.189582],[113.547372,22.189612],[113.546984,22.189489],[113.54669,22.189313],[113.545663,22.189047],[113.54415,22.188416],[113.543984,22.187929],[113.543464,22.18773],[113.542863,22.188123],[113.542857,22.188595],[113.543228,22.188957],[113.543367,22.189429],[113.543444,22.18898],[113.543884,22.18886],[113.544168,22.188433],[113.544028,22.187966],[113.543878,22.187609],[113.543798,22.187196],[113.548754,22.165061],[113.548862,22.164783],[113.549247,22.164437],[113.549677,22.164142],[113.550688,22.163712],[113.55071,22.163665],[113.551976,22.163044],[113.552328,22.162889],[113.552912,22.162738],[113.553266,22.162716],[113.553611,22.162749],[113.553933,22.162727],[113.554341,22.162666],[113.554559,22.162659],[113.554647,22.162723],[113.554848,22.162706],[113.554995,22.162567],[113.555084,22.162467],[113.555101,22.162343],[113.556702,22.160685],[113.557424,22.159961],[113.557608,22.159991],[113.557788,22.159911],[113.557866,22.159767],[113.557866,22.159655],[113.557788,22.159511],[113.557633,22.159432],[113.557482,22.159429],[113.557372,22.159477],[113.554609,22.157193],[113.553972,22.156694],[113.553725,22.156381],[113.553778,22.156185],[113.554009,22.155996],[113.555084,22.155558],[113.555567,22.155293],[113.555927,22.155293],[113.55679,22.155853],[113.557337,22.156217],[113.557777,22.156396],[113.559279,22.156712],[113.559377,22.156772],[113.559553,22.156794],[113.559794,22.157002],[113.559832,22.157139],[113.559979,22.157271],[113.560111,22.157268],[113.560167,22.157206],[113.560309,22.157263],[113.560401,22.157284],[113.560993,22.157753],[113.561028,22.157894],[113.561203,22.158073],[113.561635,22.158409],[113.561956,22.158659],[113.562254,22.159211],[113.562308,22.159072],[113.562031,22.15856],[113.560393,22.157266],[113.560363,22.157219],[113.560221,22.157119],[113.560213,22.15693],[113.560162,22.156804],[113.560084,22.156747],[113.56002,22.156558],[113.559907,22.156048],[113.559839,22.155997],[113.559778,22.155577],[113.559792,22.155395],[113.559856,22.155159],[113.560017,22.154946],[113.560406,22.154752],[113.560647,22.1547],[113.561446,22.154648],[113.561973,22.154578],[113.562445,22.154409],[113.562734,22.154081],[113.563796,22.151656],[113.563958,22.151468],[113.564113,22.151463],[113.564419,22.151825],[113.565298,22.152814],[113.565916,22.15333],[113.56806,22.155069],[113.568613,22.155497],[113.56886,22.155587],[113.569064,22.155746],[113.571333,22.156744],[113.5718,22.156883],[113.57356,22.157713],[113.573967,22.158051],[113.574321,22.158577],[113.574423,22.159288],[113.574337,22.159998],[113.573329,22.162269],[113.572959,22.162776],[113.573034,22.162989],[113.573358,22.162925],[113.574206,22.162721],[113.574303,22.162678],[113.574471,22.162641],[113.575078,22.162681],[113.575185,22.162651],[113.575254,22.162612],[113.577089,22.162182],[113.577339,22.162234],[113.57747,22.162323],[113.577785,22.162271],[113.577833,22.162192]]}},{"type":"Feature","properties":{"routeCode":"N2","routeName":"臨時客運碼頭 ⇀  筷子基北灣"},"geometry":{"type":"LineString","coordinates":[[113.577833,22.162192],[113.577956,22.162231],[113.578369,22.162135],[113.5785,22.16206],[113.578527,22.161983],[113.578498,22.161889],[113.578393,22.161856],[113.577199,22.162127],[113.577068,22.162189],[113.575241,22.162611],[113.574713,22.162582],[113.574265,22.162681],[113.574187,22.162683],[113.573825,22.16277],[113.573718,22.162761],[113.573629,22.162706],[113.573576,22.162619],[113.573527,22.162465],[113.573571,22.162191],[113.57383,22.161517],[113.574173,22.160628],[113.574461,22.159914],[113.574541,22.159258],[113.574429,22.158577],[113.574452,22.158328],[113.57423,22.158175],[113.573828,22.157778],[113.572887,22.157288],[113.571846,22.156799],[113.571264,22.15657],[113.570204,22.155937],[113.569794,22.155562],[113.569623,22.155293],[113.569279,22.155114],[113.568941,22.155115],[113.568842,22.155154],[113.568396,22.155119],[113.567933,22.154771],[113.56636,22.15352],[113.565293,22.152546],[113.565021,22.152199],[113.564424,22.151587],[113.564327,22.151269],[113.564419,22.151025],[113.564397,22.150782],[113.564236,22.150588],[113.563979,22.150454],[113.563641,22.150549],[113.563437,22.150747],[113.563405,22.15104],[113.563539,22.151299],[113.563732,22.151438],[113.563769,22.151676],[113.56306,22.153306],[113.562697,22.154156],[113.562525,22.154339],[113.562216,22.154511],[113.561862,22.154595],[113.560651,22.154706],[113.560224,22.154821],[113.559964,22.155002],[113.559824,22.155239],[113.55977,22.155547],[113.55984,22.156009],[113.559827,22.156113],[113.55987,22.156403],[113.55992,22.156759],[113.559835,22.156829],[113.559805,22.157064],[113.559859,22.157174],[113.560006,22.157288],[113.560111,22.157256],[113.560157,22.157214],[113.560328,22.157276],[113.560401,22.157286],[113.560988,22.157748],[113.561039,22.157892],[113.561106,22.157994],[113.561635,22.158409],[113.561932,22.158657],[113.562257,22.159223],[113.56231,22.159057],[113.562034,22.158565],[113.560409,22.157278],[113.560355,22.157206],[113.56021,22.157119],[113.560216,22.156928],[113.560135,22.156776],[113.560004,22.156752],[113.559848,22.156819],[113.559794,22.156995],[113.559819,22.157156],[113.559709,22.157368],[113.559405,22.157685],[113.558309,22.158837],[113.557733,22.159472],[113.557536,22.159417],[113.557327,22.159529],[113.55726,22.159715],[113.557316,22.159874],[113.556368,22.160903],[113.555583,22.161737],[113.555015,22.162279],[113.554918,22.162266],[113.554556,22.162462],[113.554532,22.162597],[113.55461,22.162716],[113.554738,22.162723],[113.554875,22.162698],[113.554995,22.162567],[113.555074,22.162494],[113.555079,22.162363],[113.555028,22.162292],[113.554913,22.162265],[113.55468,22.162376],[113.554561,22.162479],[113.554418,22.162562],[113.554052,22.162649],[113.553825,22.162672],[113.553144,22.162608],[113.552805,22.162646],[113.552496,22.162716],[113.552029,22.162886],[113.550881,22.163438],[113.549907,22.163864],[113.549559,22.163955],[113.548627,22.164073],[113.548387,22.164087],[113.548282,22.164114],[113.548231,22.164306],[113.548254,22.164438],[113.548359,22.164509],[113.548509,22.164656],[113.54864,22.164827],[113.548698,22.164977],[113.548719,22.165163],[113.543792,22.187191],[113.543578,22.18746],[113.543251,22.187812],[113.542923,22.188076],[113.542848,22.188429],[113.542972,22.188776],[113.543326,22.188985],[113.543449,22.188994],[113.543367,22.189429],[113.543444,22.188977],[113.543916,22.188868],[113.544951,22.18927],[113.546647,22.189944],[113.546218,22.190947],[113.546131,22.191097],[113.546135,22.191211],[113.546239,22.191294],[113.546382,22.191372],[113.546429,22.191478],[113.546362,22.191582],[113.546225,22.19162],[113.54567,22.191319],[113.544597,22.190644],[113.544366,22.190656],[113.54409,22.190862],[113.543995,22.191222],[113.543987,22.191863],[113.543924,22.192047],[113.543656,22.192452],[113.54343,22.192588],[113.543503,22.192891],[113.543506,22.193267],[113.543363,22.193495],[113.54336,22.193666],[113.543446,22.193837],[113.546367,22.197691],[113.54664,22.197795],[113.547075,22.197706],[113.547423,22.197989],[113.547603,22.198356],[113.547321,22.198749],[113.547313,22.198925],[113.548287,22.200179],[113.548993,22.201077],[113.54851,22.201497],[113.544681,22.204919],[113.544077,22.205473],[113.543697,22.205759],[113.542975,22.20634],[113.542585,22.206731],[113.540542,22.206189],[113.540193,22.207257],[113.540604,22.207383],[113.542119,22.207783],[113.54167,22.209153]]}}]}
